timestamp,event_type,steering,throttle,brake,instruction,user_response,button_pressed
1714162507.0105493,control,0.0,0.6212635577612914,0.6212635577612914,,,
1714162507.014549,control,0.0,0.6212635577612914,0.6212635577612914,,,
1714162507.030704,control,0.0,0.6212635577612914,0.6212635577612914,,,
1714162507.0488133,control,0.0,0.6212635577612914,0.6212635577612914,,,
1714162507.064103,control,0.0,0.6212635577612914,0.6212635577612914,,,
1714162507.081147,control,0.0,0.6212635577612914,0.6212635577612914,,,
1714162507.098192,control,0.0,0.6212635577612914,0.6212635577612914,,,
1714162507.1137152,control,-0.01215269782583947,0,0,,,
1714162507.129759,control,-0.01215269782583947,0,0,,,
1714162507.1456013,control,-0.01215269782583947,0,0,,,
1714162507.1610081,control,-0.01215269782583947,0,0,,,
1714162507.1770074,control,-0.01215269782583947,0,0,,,
1714162507.1935446,control,-0.01215269782583947,0,0,,,
1714162507.2098482,control,-0.01215269782583947,0,0,,,
1714162507.2257562,control,-0.01215269782583947,0,0,,,
1714162507.2411659,control,-0.01215269782583947,0,0,,,
1714162507.2578726,control,-0.01215269782583947,0,0,,,
1714162507.2738876,control,-0.01215269782583947,0,0,,,
1714162507.2897851,control,-0.01215269782583947,0,0,,,
1714162507.3171043,control,-0.01215269782583947,0,0,,,
1714162507.3221505,control,-0.01215269782583947,0,0,,,
1714162507.3380318,control,-0.01215269782583947,0,0,,,
1714162507.3531096,control,-0.01215269782583947,0,0,,,
1714162507.3693507,control,-0.01215269782583947,0,0,,,
1714162507.3849337,control,-0.01215269782583947,0,0,,,
1714162507.4016411,control,-0.01215269782583947,0,0,,,
1714162507.4166636,control,-0.01215269782583947,0,0,,,
1714162507.432759,control,-0.01215269782583947,0,0,,,
1714162507.4620478,control,-0.01215269782583947,0,0,,,
1714162507.4680629,control,-0.01215269782583947,0,0,,,
1714162507.4835763,control,-0.01215269782583947,0,0,,,
1714162507.5026066,control,-0.01215269782583947,0,0,,,
1714162507.5171218,control,-0.01215269782583947,0,0,,,
1714162507.5491836,control,-0.01215269782583947,0,0,,,
1714162507.5551887,control,-0.01215269782583947,0,0,,,
1714162507.5853424,control,-0.01215269782583947,0,0,,,
1714162507.5918565,control,-0.01215269782583947,0,0,,,
1714162507.6229136,control,-0.01215269782583947,0,0,,,
1714162507.628071,control,-0.01215269782583947,0,0,,,
1714162507.647111,control,-0.01215269782583947,0,0,,,
1714162507.662309,control,-0.01215269782583947,0,0,,,
1714162507.6920466,control,-0.01215269782583947,0,0,,,
1714162507.697551,control,-0.01215269782583947,0,0,,,
1714162507.7255812,control,-0.01215269782583947,0,0,,,
1714162507.7301013,control,-0.01215269782583947,0,0,,,
1714162507.7568548,control,-0.01215269782583947,0,0,,,
1714162507.7618604,control,-0.01215269782583947,0,0,,,
1714162507.7889714,control,-0.01215269782583947,0,0,,,
1714162507.7939715,control,-0.01215269782583947,0,0,,,
1714162507.8236887,control,-0.01215269782583947,0,0,,,
1714162507.827764,control,-0.01215269782583947,0,0,,,
1714162507.8442738,control,-0.01215269782583947,0,0,,,
1714162507.8613026,control,-0.01215269782583947,0,0,,,
1714162507.8768291,control,-0.01215269782583947,0,0,,,
1714162507.8937109,control,-0.01215269782583947,0,0,,,
1714162507.9088578,control,-0.01215269782583947,0,0,,,
1714162507.9260354,control,-0.01215269782583947,0,0,,,
1714162507.9421248,control,-0.01215269782583947,0,0,,,
1714162507.957821,control,-0.01215269782583947,0,0,,,
1714162507.9738548,control,-0.01215269782583947,0,0,,,
1714162507.990644,control,-0.01215269782583947,0,0,,,
1714162508.0061586,control,-0.01215269782583947,0,0,,,
1714162508.0217133,control,-0.01215269782583947,0,0,,,
1714162508.0378838,control,-0.01215269782583947,0,0,,,
1714162508.0652227,control,-0.01215269782583947,0,0,,,
1714162508.0698102,control,-0.01215269782583947,0,0,,,
1714162508.0987968,control,-0.01215269782583947,0,0,,,
1714162508.1038013,control,-0.01215269782583947,0,0,,,
1714162508.1309476,control,-0.01215269782583947,0,0,,,
1714162508.1349485,control,-0.01215269782583947,0,0,,,
1714162508.1624904,control,-0.01215269782583947,0,0,,,
1714162508.1669967,control,-0.01215269782583947,0,0,,,
1714162508.1833732,control,-0.01215269782583947,0,0,,,
1714162508.199235,control,-0.01215269782583947,0,0,,,
1714162508.2148368,control,-0.01215269782583947,0,0,,,
1714162508.2308934,control,-0.01215269782583947,0,0,,,
1714162508.2597287,control,-0.01215269782583947,0,0,,,
1714162508.264731,control,-0.01215269782583947,0,0,,,
1714162508.2912798,control,-0.01215269782583947,0,0,,,
1714162508.295279,control,-0.01215269782583947,0,0,,,
1714162508.3238587,control,-0.01215269782583947,0,0,,,
1714162508.3283694,control,-0.01215269782583947,0,0,,,
1714162508.344299,control,-0.01215269782583947,0,0,,,
1714162508.3598166,control,-0.01215269782583947,0,0,,,
1714162508.3753448,control,-0.01215269782583947,0,0,,,
1714162508.3918772,control,-0.01215269782583947,0,0,,,
1714162508.4079208,control,-0.01215269782583947,0,0,,,
1714162508.424572,control,-0.01215269782583947,0,0,,,
1714162508.4406075,control,-0.01215269782583947,0,0,,,
1714162508.4552686,control,-0.01215269782583947,0,0,,,
1714162508.4723046,control,-0.01215269782583947,0,0,,,
1714162508.487888,control,-0.01215269782583947,0,0,,,
1714162508.5044024,control,-0.01215269782583947,0,0,,,
1714162508.5204334,control,-0.01215269782583947,0,0,,,
1714162508.5359511,control,-0.01215269782583947,0,0,,,
1714162508.5523734,control,-0.01215269782583947,0,0,,,
1714162508.5684407,control,-0.01215269782583947,0.03152288171889883,0,,,
1714162508.5839605,control,-0.01215269782583947,0.09968198510957893,0,,,
1714162508.5999846,control,-0.01215269782583947,0.1446888937210118,0,,,
1714162508.6160839,control,-0.01215269782583947,0.199662632348784,0,,,
1714162508.6326213,control,-0.01215269782583947,0.24034327038298509,0,,,
1714162508.6476617,control,-0.01215269782583947,0.2628438985038368,0,,,
1714162508.6637182,control,-0.01215269782583947,0.2902741531975883,0,,,
1714162508.6910417,control,-0.01215269782583947,0.3063544237406597,0,,,
1714162508.6969159,control,-0.01215269782583947,0.3063544237406597,0,,,
1714162508.7179508,control,-0.01215269782583947,0.3063544237406597,0,,,
1714162508.7330086,control,-0.01215269782583947,0.3063544237406597,0,,,
1714162508.7488968,control,-0.01215269782583947,0.3063544237406597,0,,,
1714162508.7654374,control,-0.01215269782583947,0.3063544237406597,0,,,
1714162508.7810204,control,-0.01215269782583947,0.3063544237406597,0,,,
1714162508.7967937,control,-0.01215269782583947,0.3063544237406597,0,,,
1714162508.813326,control,-0.01215269782583947,0.3063544237406597,0,,,
1714162508.8289032,control,-0.01215269782583947,0.3063544237406597,0,,,
1714162508.8454106,control,-0.01215269782583947,0.3063544237406597,0,,,
1714162508.860438,control,-0.01215269782583947,0.32217185588316455,0,,,
1714162508.8770103,control,-0.01215269782583947,0.34797293749399727,0,,,
1714162508.893379,control,-0.01215269782583947,0.3631297208009001,0,,,
1714162508.919892,control,-0.01215269782583947,0.4120218652667349,0,,,
1714162508.9248934,control,-0.01215269782583947,0.42150708111974344,0,,,
1714162508.9412735,control,-0.01215269782583947,0.44482117906924334,0,,,
1714162508.9572883,control,-0.01215269782583947,0.4675867878551181,0,,,
1714162508.9733987,control,-0.01215269782583947,0.49423373242330904,0,,,
1714162508.988887,control,-0.01215269782583947,0.5158786685404688,0,,,
1714162509.0053961,control,-0.01215269782583947,0.5286369949748542,0,,,
1714162509.0210006,control,-0.01215269782583947,0.5536598593076767,0,,,
1714162509.0482643,control,-0.01215269782583947,0.5659327652817765,0,,,
1714162509.0542634,control,-0.01215269782583947,0.5780519701692741,0,,,
1714162509.0713751,control,-0.01215269782583947,0.5820735872329712,0,,,
1714162509.0873857,control,-0.01215269782583947,0.5860632474304233,0,,,
1714162509.1147833,control,-0.01215269782583947,0.5979344774002306,0,,,
1714162509.1191397,control,-0.01215269782583947,0.6018594116313,0,,,
1714162509.146677,control,-0.01215269782583947,0.6174018699744762,0,,,
1714162509.1516836,control,-0.01215269782583947,0.6174018699744762,0,,,
1714162509.1668813,control,-0.01215269782583947,0.6212487913919204,0,,,
1714162509.183021,control,-0.01215269782583947,0.6212635577612914,0,,,
1714162509.210025,control,-0.01215269782583947,0.6287945016040417,0,,,
1714162509.2154534,control,-0.01215269782583947,0.6287945016040417,0,,,
1714162509.2313669,control,-0.01215269782583947,0.6287945016040417,0,,,
1714162509.2480876,control,-0.01215269782583947,0.6325381093670247,0,,,
1714162509.2644386,control,-0.01215269782583947,0.6362672908600797,0,,,
1714162509.2810054,control,-0.01215269782583947,0.6473693789729349,0,,,
1714162509.296072,control,-0.01215269782583947,0.6583455427660694,0,,,
1714162509.3120987,control,-0.01215269782583947,0.6691986068000356,0,,,
1714162509.3279493,control,-0.01215269782583947,0.6870208674270563,0,,,
1714162509.3442874,control,-0.01215269782583947,0.7045208271325776,0,,,
1714162509.3598292,control,-0.01215269782583947,0.7182964533433602,0,,,
1714162509.375345,control,-0.01215269782583947,0.7251114209440678,0,,,
1714162509.3923666,control,-0.01215269782583947,0.7385990455456733,0,,,
1714162509.40839,control,-0.01215269782583947,0.7551984473869771,0,,,
1714162509.4239004,control,-0.01215269782583947,0.7715179133871491,0,,,
1714162509.4528992,control,-0.01215269782583947,0.8002168620402252,0,,,
1714162509.4574027,control,-0.01215269782583947,0.8095971106044709,0,,,
1714162509.4734535,control,-0.01215269782583947,0.831137108933895,0,,,
1714162509.4888937,control,-0.01215269782583947,0.8462344728585406,0,,,
1714162509.5048385,control,-0.01215269782583947,0.8610999172391722,0,,,
1714162509.5218744,control,-0.01215269782583947,0.8757404597163612,0,,,
1714162509.5375633,control,-0.01215269782583947,0.8844196335872573,0,,,
1714162509.5530958,control,-0.01215269782583947,0.8958720915083908,0,,,
1714162509.5686686,control,-0.01215269782583947,0.9128005943220526,0,,,
1714162509.587421,control,-0.01215269782583947,0.9321833590175354,0,,,
1714162509.614479,control,-0.01215269782583947,0.9645336047683365,0,,,
1714162509.6189888,control,-0.01215269782583947,0.9671812709887372,0,,,
1714162509.6340518,control,-0.01215269782583947,0.985514836368376,0,,,
1714162509.6497102,control,-0.01215269782583947,1,0,,,
1714162509.665382,control,-0.01215269782583947,1,0,,,
1714162509.6825118,control,-0.01215269782583947,1,0,,,
1714162509.7100685,control,-0.01215269782583947,1,0,,,
1714162509.7140687,control,-0.01215269782583947,1,0,,,
1714162509.730379,control,-0.01215269782583947,1,0,,,
1714162509.7459025,control,-0.01215269782583947,1,0,,,
1714162509.762062,control,-0.01215269782583947,1,0,,,
1714162509.7781975,control,-0.01215269782583947,1,0,,,
1714162509.7940228,control,-0.01215269782583947,1,0,,,
1714162509.810357,control,-0.01215269782583947,1,0,,,
1714162509.8258681,control,-0.01215269782583947,1,0,,,
1714162509.8534725,control,-0.01215269782583947,1,0,,,
1714162509.859439,control,-0.01215269782583947,1,0,,,
1714162509.886986,control,-0.01215269782583947,1,0,,,
1714162509.8915071,control,-0.01215269782583947,1,0,,,
1714162509.9191837,control,-0.01215269782583947,1,0,,,
1714162509.9241848,control,-0.01215269782583947,1,0,,,
1714162509.9507303,control,-0.01215269782583947,1,0,,,
1714162509.9557307,control,-0.01215269782583947,1,0,,,
1714162509.9712746,control,-0.01215269782583947,1,0,,,
1714162509.9878054,control,-0.01215269782583947,1,0,,,
1714162510.003194,control,-0.01215269782583947,1,0,,,
1714162510.0189757,control,-0.01215269782583947,1,0,,,
1714162510.035519,control,-0.01215269782583947,1,0,,,
1714162510.0512216,control,-0.01215269782583947,1,0,,,
1714162510.066827,control,-0.01215269782583947,1,0,,,
1714162510.0831656,control,-0.01215269782583947,1,0,,,
1714162510.099194,control,-0.01215269782583947,1,0,,,
1714162510.1147068,control,-0.01215269782583947,1,0,,,
1714162510.130978,control,-0.01215269782583947,1,0,,,
1714162510.149009,control,-0.01215269782583947,1,0,,,
1714162510.1641142,control,-0.01215269782583947,1,0,,,
1714162510.1799557,control,-0.01215269782583947,1,0,,,
1714162510.196061,control,-0.01215269782583947,1,0,,,
1714162510.2122757,control,-0.01215269782583947,1,0,,,
1714162510.2280471,control,-0.01215269782583947,1,0,,,
1714162510.2445595,control,-0.01215269782583947,1,0,,,
1714162510.2601705,control,-0.01215269782583947,1,0,,,
1714162510.2758923,control,-0.01215269782583947,1,0,,,
1714162510.2917626,control,-0.01215269782583947,1,0,,,
1714162510.3087797,control,-0.01215269782583947,1,0,,,
1714162510.3238163,control,-0.01215269782583947,1,0,,,
1714162510.340508,control,-0.01215269782583947,1,0,,,
1714162510.3561194,control,-0.01215269782583947,1,0,,,
1714162510.3717084,control,-0.01215269782583947,1,0,,,
1714162510.387732,control,-0.01215269782583947,0.9984007977363134,0,,,
1714162510.4154508,control,-0.01215269782583947,0.9750810813882282,0,,,
1714162510.4209664,control,-0.01215269782583947,0.972454970143269,0,,,
1714162510.4360228,control,0.002685553331218348,0.9618786747083273,0,,,
1714162510.4543605,control,0.0037262135346639107,0.9484936563441855,0,,,
1714162510.4704256,control,0.00449832135627678,0.9321833590175354,0,,,
1714162510.4853458,control,0.005136153561758657,0.9211550755624077,0,,,
1714162510.5023708,control,0.005706849061957913,0.9155934430134648,0,,,
1714162510.5183635,control,0.0061768363662808344,0.9155934430134648,0,,,
1714162510.5338602,control,0.006411831028723809,0.9155934430134648,0,,,
1714162510.5500817,control,0.006546114009247007,0.9155934430134648,0,,,
1714162510.5655913,control,0.006713968067439579,0.9155934430134648,0,,,
1714162510.5842788,control,0.006915393437479781,0.9155934430134648,0,,,
1714162510.5997207,control,0.0071839614732117,0.9155934430134648,0,,,
1714162510.6178694,control,0.007418959353235623,0.9155934430134648,0,,,
1714162510.6329303,control,0.007754672038196064,0.9155934430134648,0,,,
1714162510.6489596,control,0.008258244366511607,0.9155934430134648,0,,,
1714162510.6656184,control,0.008929680696543815,0.9155934430134648,0,,,
1714162510.6814282,control,0.009668269981716687,0.9211550755624077,0,,,
1714162510.6974564,control,0.01047401580461661,0.9211550755624077,0,,,
1714162510.7123706,control,0.011380496162251357,0.9211550755624077,0,,,
1714162510.7289586,control,0.012219846468183512,0.9211550755624077,0,,,
1714162510.7454915,control,0.013059213989880152,0.9211550755624077,0,,,
1714162510.7610488,control,0.01373072119750794,0.9211550755624077,0,,,
1714162510.7772243,control,0.01423435969504256,0.9211550755624077,0,,,
1714162510.7927527,control,0.014469393449113537,0.9211550755624077,0,,,
1714162510.808972,control,0.014502969829561157,0.9211550755624077,0,,,
1714162510.8254793,control,0.014502969829561157,0.9211550755624077,0,,,
1714162510.8415086,control,0.014502969829561157,0.9211550755624077,0,,,
1714162510.857026,control,0.014502969829561157,0.9211550755624077,0,,,
1714162510.8731081,control,0.014502969829561157,0.9211550755624077,0,,,
1714162510.8893528,control,0.014435817101283874,0.9211550755624077,0,,,
1714162510.9048886,control,0.014133631426130902,0.9239239512708277,0,,,
1714162510.9207296,control,0.013764296877851828,0.9239239512708277,0,,,
1714162510.9482749,control,0.012689890083571057,0.9266849271804737,0,,,
1714162510.9536092,control,0.012454867588036258,0.9266849271804737,0,,,
1714162510.981152,control,0.010608308068942402,0.9266849271804737,0,,,
1714162510.9853108,control,0.010138286785830692,0.9266849271804737,0,,,
1714162511.0007775,control,0.008728248979734673,0.9266849271804737,0,,,
1714162511.017805,control,0.0066803972258384975,0.9294380482405054,0,,,
1714162511.032891,control,0.004968302597389185,0.9294380482405054,0,,,
1714162511.048795,control,0.0028534012986847026,0.9294380482405054,0,,,
1714162511.0648766,control,0.0006378174693028928,0.9321833590175354,0,,,
1714162511.0811892,control,-0.0014434824478779282,0.9321833590175354,0,,,
1714162511.096711,control,-0.003692643736813869,0.9349209036999581,0,,,
1714162511.1131802,control,-0.005740419497629653,0.9349209036999581,0,,,
1714162511.128833,control,-0.007620386758707335,0.9376507261022167,0,,,
1714162511.1453395,control,-0.009198257448911722,0.9403728696690115,0,,,
1714162511.1609662,control,-0.010440442797746724,0.9403728696690115,0,,,
1714162511.1773257,control,-0.011447643581044279,0.9403728696690115,0,,,
1714162511.192919,control,-0.01208554929307064,0.9430873774794483,0,,,
1714162511.2094362,control,-0.012320569638477915,0.9430873774794483,0,,,
1714162511.2249444,control,-0.012454867588036258,0.9430873774794483,0,,,
1714162511.2409694,control,-0.012454867588036258,0.9430873774794483,0,,,
1714162511.2569852,control,-0.012454867588036258,0.9430873774794483,0,,,
1714162511.2841356,control,-0.012454867588036258,0.9457942922511292,0,,,
1714162511.2889082,control,-0.012454867588036258,0.9457942922511292,0,,,
1714162511.3158996,control,-0.012454867588036258,0.9457942922511292,0,,,
1714162511.3214085,control,-0.012454867588036258,0.9457942922511292,0,,,
1714162511.3375442,control,-0.012454867588036258,0.9457942922511292,0,,,
1714162511.3530715,control,-0.012454867588036258,0.9457942922511292,0,,,
1714162511.369094,control,-0.012454867588036258,0.9457942922511292,0,,,
1714162511.3851397,control,-0.012454867588036258,0.9457942922511292,0,,,
1714162511.401155,control,-0.012454867588036258,0.9457942922511292,0,,,
1714162511.4171329,control,-0.012454867588036258,0.9457942922511292,0,,,
1714162511.4334085,control,-0.012320569638477915,0.9457942922511292,0,,,
1714162511.4509878,control,-0.012320569638477915,0.9457942922511292,0,,,
1714162511.465731,control,-0.012320569638477915,0.9457942922511292,0,,,
1714162511.4817717,control,-0.012320569638477915,0.9457942922511292,0,,,
1714162511.4980328,control,-0.012320569638477915,0.9457942922511292,0,,,
1714162511.5261407,control,-0.012320569638477915,0.9457942922511292,0,,,
1714162511.5323577,control,-0.012320569638477915,0.9484936563441855,0,,,
1714162511.5598912,control,-0.012320569638477915,0.9484936563441855,0,,,
1714162511.5648937,control,-0.012320569638477915,0.9484936563441855,0,,,
1714162511.5814679,control,-0.011984826698046116,0.9484936563441855,0,,,
1714162511.5969827,control,-0.011581938728884762,0.9484936563441855,0,,,
1714162511.6241498,control,-0.010373296854530987,0.9484936563441855,0,,,
1714162511.6292036,control,-0.010037568529253325,0.9484936563441855,0,,,
1714162511.6567483,control,-0.008459674456198057,0.9484936563441855,0,,,
1714162511.6618674,control,-0.00798967195313854,0.9484936563441855,0,,,
1714162511.6891387,control,-0.006210406989973087,0.9484936563441855,0,,,
1714162511.6941395,control,-0.005740419497629653,0.9484936563441855,0,,,
1714162511.7089186,control,-0.004733311715462565,0.9484936563441855,0,,,
1714162511.7250066,control,-0.003692643736813869,0.9484936563441855,0,,,
1714162511.7525454,control,-0.0020813018333903,0.9484936563441855,0,,,
1714162511.757055,control,-0.001947023944695216,0.9484936563441855,0,,,
1714162511.784642,control,-0.0008728029560042987,0.9484936563441855,0,,,
1714162511.7891536,control,-0.000738525524893808,0.9484936563441855,0,,,
1714162511.8055089,control,-0.0005035400816204615,0.9484936563441855,0,,,
1714162511.8214557,control,-0.00036926271209609826,0.9484936563441855,0,,,
1714162511.8481612,control,-0.00036926271209609826,0.9484936563441855,0,,,
1714162511.8531623,control,-0.00036926271209609826,0.9484936563441855,0,,,
1714162511.8804207,control,-0.00036926271209609826,0.9484936563441855,0,,,
1714162511.88542,control,-0.00036926271209609826,0.9484936563441855,0,,,
1714162511.9014452,control,-0.00036926271209609826,0.9484936563441855,0,,,
1714162511.9174588,control,-0.00036926271209609826,0.9484936563441855,0,,,
1714162511.9330955,control,-0.00036926271209609826,0.9457942922511292,0,,,
1714162511.9491405,control,-0.00036926271209609826,0.9457942922511292,0,,,
1714162511.9652598,control,-0.00036926271209609826,0.9457942922511292,0,,,
1714162511.981889,control,-0.00036926271209609826,0.9457942922511292,0,,,
1714162511.996802,control,-0.00036926271209609826,0.9457942922511292,0,,,
1714162512.0128183,control,-0.00033569337198476566,0.9457942922511292,0,,,
1714162512.0406888,control,-0.00033569337198476566,0.9457942922511292,0,,,
1714162512.0446882,control,-0.00033569337198476566,0.9457942922511292,0,,,
1714162512.060679,control,-0.00033569337198476566,0.9457942922511292,0,,,
1714162512.077204,control,-0.00033569337198476566,0.9457942922511292,0,,,
1714162512.1042457,control,-0.00033569337198476566,0.9457942922511292,0,,,
1714162512.1087563,control,-0.00033569337198476566,0.9457942922511292,0,,,
1714162512.1252673,control,-0.00033569337198476566,0.9457942922511292,0,,,
1714162512.1412828,control,-0.00023498535588764956,0.9457942922511292,0,,,
1714162512.1688602,control,0.00013427734455702498,0.9457942922511292,0,,,
1714162512.1743727,control,0.00016784668126372065,0.9457942922511292,0,,,
1714162512.201081,control,0.0009735110497271773,0.9430873774794483,0,,,
1714162512.205617,control,0.0011413579174894652,0.9430873774794483,0,,,
1714162512.2325702,control,0.0023834273647463863,0.9430873774794483,0,,,
1714162512.238033,control,0.002719122912303485,0.9430873774794483,0,,,
1714162512.2531393,control,0.0034240856472713414,0.9430873774794483,0,,,
1714162512.2691782,control,0.004263331493878723,0.9430873774794483,0,,,
1714162512.2852037,control,0.005102583346035085,0.9430873774794483,0,,,
1714162512.3013194,control,0.005841130882576674,0.9430873774794483,0,,,
1714162512.3169613,control,0.006478972489779557,0.9430873774794483,0,,,
1714162512.3338313,control,0.0070161063318982565,0.9430873774794483,0,,,
1714162512.3488522,control,0.0071839614732117,0.9430873774794483,0,,,
1714162512.3649573,control,0.0073853881779579935,0.9430873774794483,0,,,
1714162512.3936472,control,0.007418959353235623,0.9430873774794483,0,,,
1714162512.3981612,control,0.007418959353235623,0.9430873774794483,0,,,
1714162512.413671,control,0.007553244222320655,0.9430873774794483,0,,,
1714162512.4317036,control,0.007586815481963918,0.9430873774794483,0,,,
1714162512.4467309,control,0.0077211006922952696,0.9430873774794483,0,,,
1714162512.463922,control,0.007922529031391611,0.9430873774794483,0,,,
1714162512.4790204,control,0.008123958013337151,0.9430873774794483,0,,,
1714162512.49529,control,0.008392531017505356,0.9430873774794483,0,,,
1714162512.5113232,control,0.008593961563002312,0.9430873774794483,0,,,
1714162512.5274217,control,0.00879539280583752,0.9430873774794483,0,,,
1714162512.5429366,control,0.008963252719349495,0.9430873774794483,0,,,
1714162512.558996,control,0.009063968909287307,0.9430873774794483,0,,,
1714162512.575058,control,0.009097541013359117,0.9430873774794483,0,,,
1714162512.6018014,control,0.009097541013359117,0.9430873774794483,0,,,
1714162512.6068025,control,0.009097541013359117,0.9430873774794483,0,,,
1714162512.6236022,control,0.009097541013359117,0.9430873774794483,0,,,
1714162512.6393583,control,0.009097541013359117,0.9430873774794483,0,,,
1714162512.6661675,control,0.009097541013359117,0.9430873774794483,0,,,
1714162512.6712487,control,0.009097541013359117,0.9430873774794483,0,,,
1714162512.6869385,control,0.009097541013359117,0.9430873774794483,0,,,
1714162512.7030666,control,0.008963252719349495,0.9430873774794483,0,,,
1714162512.7190957,control,0.00879539280583752,0.9430873774794483,0,,,
1714162512.735232,control,0.008593961563002312,0.9430873774794483,0,,,
1714162512.7513208,control,0.008426102727355654,0.9430873774794483,0,,,
1714162512.7668295,control,0.008224672750486632,0.9430873774794483,0,,,
1714162512.7944763,control,0.007754672038196064,0.9430873774794483,0,,,
1714162512.7990234,control,0.0077211006922952696,0.9430873774794483,0,,,
1714162512.8268657,control,0.007351817019326462,0.9430873774794483,0,,,
1714162512.8319616,control,0.007251103642551727,0.9430873774794483,0,,,
1714162512.8580573,control,0.0070161063318982565,0.9430873774794483,0,,,
1714162512.8630612,control,0.0070161063318982565,0.9430873774794483,0,,,
1714162512.8907416,control,0.006881822503947847,0.9430873774794483,0,,,
1714162512.8957427,control,0.006848251585926903,0.9430873774794483,0,,,
1714162512.9142978,control,0.006848251585926903,0.9430873774794483,0,,,
1714162512.9293153,control,0.006713968067439579,0.9430873774794483,0,,,
1714162512.9568515,control,0.006546114009247007,0.9430873774794483,0,,,
1714162512.9618585,control,0.006546114009247007,0.9430873774794483,0,,,
1714162512.9886422,control,0.0061768363662808344,0.9430873774794483,0,,,
1714162512.9943233,control,0.006008983455134505,0.9430873774794483,0,,,
1714162513.0217445,control,0.0054718563681688355,0.9430873774794483,0,,,
1714162513.0267427,control,0.0054718563681688355,0.9430873774794483,0,,,
1714162513.053217,control,0.004834022027908725,0.9430873774794483,0,,,
1714162513.058802,control,0.004766881808842218,0.9430873774794483,0,,,
1714162513.0743756,control,0.004431181346033966,0.9430873774794483,0,,,
1714162513.0904317,control,0.004162621698497378,0.9430873774794483,0,,,
1714162513.1176438,control,0.003759783340912212,0.9430873774794483,0,,,
1714162513.1226537,control,0.0037262135346639107,0.9430873774794483,0,,,
1714162513.1500063,control,0.0032226674063594676,0.9430873774794483,0,,,
1714162513.1550071,control,0.003189097725403821,0.9430873774794483,0,,,
1714162513.1705732,control,0.0028534012986847026,0.9430873774794483,0,,,
1714162513.1871953,control,0.0025512750666486497,0.9403728696690115,0,,,
1714162513.2031646,control,0.0022155797971391412,0.9403728696690115,0,,,
1714162513.219633,control,0.0018463155745150268,0.9403728696690115,0,,,
1714162513.2351515,control,0.0014770518554011664,0.9403728696690115,0,,,
1714162513.25088,control,0.0010070804185887954,0.9403728696690115,0,,,
1714162513.2669027,control,0.0005035400816204615,0.9403728696690115,0,,,
1714162513.282901,control,0.00010070800815296367,0.9403728696690115,0,,,
1714162513.3107893,control,-0.0007720948799855484,0.9403728696690115,0,,,
1714162513.3167953,control,-0.000939941683059661,0.9403728696690115,0,,,
1714162513.3332677,control,-0.0014434824478779282,0.9403728696690115,0,,,
1714162513.3488567,control,-0.001947023944695216,0.9403728696690115,0,,,
1714162513.3653648,control,-0.0024169968940805963,0.9403728696690115,0,,,
1714162513.3811789,control,-0.0028198316926319757,0.9403728696690115,0,,,
1714162513.3971846,control,-0.003189097725403821,0.9403728696690115,0,,,
1714162513.4132075,control,-0.0035247948708893497,0.9403728696690115,0,,,
1714162513.4313035,control,-0.0037933531556344348,0.9403728696690115,0,,,
1714162513.4456518,control,-0.0038604928108032983,0.9403728696690115,0,,,
1714162513.4745362,control,-0.0038604928108032983,0.9403728696690115,0,,,
1714162513.479048,control,-0.0038604928108032983,0.9403728696690115,0,,,
1714162513.494564,control,-0.0038604928108032983,0.9403728696690115,0,,,
1714162513.5105875,control,-0.0038604928108032983,0.9403728696690115,0,,,
1714162513.5371218,control,-0.0038604928108032983,0.9403728696690115,0,,,
1714162513.5431283,control,-0.0038604928108032983,0.9403728696690115,0,,,
1714162513.5687857,control,-0.0038604928108032983,0.9403728696690115,0,,,
1714162513.5742958,control,-0.0038604928108032983,0.9403728696690115,0,,,
1714162513.5930576,control,-0.0038604928108032983,0.9376507261022167,0,,,
1714162513.6076696,control,-0.0038604928108032983,0.9376507261022167,0,,,
1714162513.6241958,control,-0.0038604928108032983,0.9376507261022167,0,,,
1714162513.6397543,control,-0.0038604928108032983,0.9376507261022167,0,,,
1714162513.6552706,control,-0.0038604928108032983,0.9376507261022167,0,,,
1714162513.672347,control,-0.0038604928108032983,0.9376507261022167,0,,,
1714162513.6883774,control,-0.0038604928108032983,0.9376507261022167,0,,,
1714162513.7038867,control,-0.0038604928108032983,0.9376507261022167,0,,,
1714162513.7199967,control,-0.0038604928108032983,0.9376507261022167,0,,,
1714162513.7360406,control,-0.0038604928108032983,0.9376507261022167,0,,,
1714162513.752079,control,-0.0038604928108032983,0.9376507261022167,0,,,
1714162513.7681057,control,-0.0038604928108032983,0.9376507261022167,0,,,
1714162513.7841449,control,-0.0038269229789062425,0.9349209036999581,0,,,
1714162513.8002145,control,-0.0035583646278830364,0.9349209036999581,0,,,
1714162513.815734,control,-0.0032898067901363983,0.9349209036999581,0,,,
1714162513.8318365,control,-0.0028198316926319757,0.9349209036999581,0,,,
1714162513.8478756,control,-0.002316288322117708,0.9321833590175354,0,,,
1714162513.8640003,control,-0.0016113295195405886,0.9294380482405054,0,,,
1714162513.8801258,control,-0.000738525524893808,0.9294380482405054,0,,,
1714162513.9068694,control,0.0010070804185887954,0.9266849271804737,0,,,
1714162513.9118743,control,0.0014770518554011664,0.9266849271804737,0,,,
1714162513.9390192,control,0.003759783340912212,0.9266849271804737,0,,,
1714162513.9444058,control,0.004061911987552971,0.9266849271804737,0,,,
1714162513.9600565,control,0.005337575101848025,0.9266849271804737,0,,,
1714162513.9756844,control,0.006546114009247007,0.9266849271804737,0,,,
1714162513.9917173,control,0.0077211006922952696,0.9266849271804737,0,,,
1714162514.0079293,control,0.008728248979734673,0.9266849271804737,0,,,
1714162514.024134,control,0.009668269981716687,0.9266849271804737,0,,,
1714162514.0399709,control,0.01047401580461661,0.9266849271804737,0,,,
1714162514.0552356,control,0.010977613783124725,0.9266849271804737,0,,,
1714162514.071265,control,0.011380496162251357,0.9266849271804737,0,,,
1714162514.087944,control,0.01151479110305355,0.9266849271804737,0,,,
1714162514.1159732,control,0.011548364902953565,0.9266849271804737,0,,,
1714162514.1208334,control,0.011548364902953565,0.9266849271804737,0,,,
1714162514.147381,control,0.011548364902953565,0.9266849271804737,0,,,
1714162514.1523867,control,0.011548364902953565,0.9266849271804737,0,,,
1714162514.1690452,control,0.011548364902953565,0.9266849271804737,0,,,
1714162514.1836562,control,0.011548364902953565,0.9266849271804737,0,,,
1714162514.211208,control,0.011548364902953565,0.9266849271804737,0,,,
1714162514.2162108,control,0.011548364902953565,0.9266849271804737,0,,,
1714162514.2321253,control,0.011548364902953565,0.9294380482405054,0,,,
1714162514.2478733,control,0.011548364902953565,0.9321833590175354,0,,,
1714162514.264547,control,0.011548364902953565,0.9321833590175354,0,,,
1714162514.2804732,control,0.011548364902953565,0.9321833590175354,0,,,
1714162514.2969868,control,0.011548364902953565,0.9349209036999581,0,,,
1714162514.312031,control,0.011548364902953565,0.9349209036999581,0,,,
1714162514.3279517,control,0.011548364902953565,0.9349209036999581,0,,,
1714162514.3551867,control,0.011548364902953565,0.9349209036999581,0,,,
1714162514.3603575,control,0.011548364902953565,0.9376507261022167,0,,,
1714162514.387855,control,0.011548364902953565,0.9376507261022167,0,,,
1714162514.391854,control,0.011548364902953565,0.9376507261022167,0,,,
1714162514.4196854,control,0.011548364902953565,0.9403728696690115,0,,,
1714162514.4236836,control,0.011548364902953565,0.9403728696690115,0,,,
1714162514.4429438,control,0.011548364902953565,0.9403728696690115,0,,,
1714162514.4580145,control,0.011548364902953565,0.9403728696690115,0,,,
1714162514.4735286,control,0.011548364902953565,0.9403728696690115,0,,,
1714162514.4897454,control,0.011548364902953565,0.9403728696690115,0,,,
1714162514.5173752,control,0.011548364902953565,0.9430873774794483,0,,,
1714162514.522385,control,0.011548364902953565,0.9430873774794483,0,,,
1714162514.5499396,control,0.011548364902953565,0.9430873774794483,0,,,
1714162514.553939,control,0.011548364902953565,0.9430873774794483,0,,,
1714162514.5696619,control,0.011548364902953565,0.9430873774794483,0,,,
1714162514.5852926,control,0.01151479110305355,0.9430873774794483,0,,,
1714162514.6023164,control,0.011212628062866449,0.9430873774794483,0,,,
1714162514.6178353,control,0.011044760595336685,0.9430873774794483,0,,,
1714162514.6343539,control,0.01084332045502726,0.9430873774794483,0,,,
1714162514.6503797,control,0.010608308068942402,0.9430873774794483,0,,,
1714162514.6660652,control,0.010272578114882094,0.9430873774794483,0,,,
1714162514.6932697,control,0.009500407883314273,0.9430873774794483,0,,,
1714162514.6991365,control,0.009433263194380818,0.9430873774794483,0,,,
1714162514.725171,control,0.00856038975743469,0.9430873774794483,0,,,
1714162514.7299612,control,0.008258244366511607,0.9430873774794483,0,,,
1714162514.75781,control,0.0071839614732117,0.9430873774794483,0,,,
1714162514.7628095,control,0.007049677328230885,0.9430873774794483,0,,,
1714162514.789447,control,0.0061096951605863255,0.9430873774794483,0,,,
1714162514.7944484,control,0.005841130882576674,0.9430873774794483,0,,,
1714162514.8100739,control,0.005337575101848025,0.9430873774794483,0,,,
1714162514.8265352,control,0.004968302597389185,0.9430873774794483,0,,,
1714162514.8423226,control,0.004766881808842218,0.9430873774794483,0,,,
1714162514.8579268,control,0.004599031447869099,0.9430873774794483,0,,,
1714162514.873701,control,0.004464751346123943,0.9430873774794483,0,,,
1714162514.8897297,control,0.004464751346123943,0.9430873774794483,0,,,
1714162514.9067447,control,0.004464751346123943,0.9430873774794483,0,,,
1714162514.9329453,control,0.004464751346123943,0.9430873774794483,0,,,
1714162514.938052,control,0.004464751346123943,0.9430873774794483,0,,,
1714162514.9545557,control,0.004431181346033966,0.9430873774794483,0,,,
1714162514.970161,control,0.004431181346033966,0.9430873774794483,0,,,
1714162514.997131,control,0.004397611355931185,0.9430873774794483,0,,,
1714162515.0028486,control,0.004296901444789367,0.9430873774794483,0,,,
1714162515.018021,control,0.004296901444789367,0.9430873774794483,0,,,
1714162515.034082,control,0.004263331493878723,0.9430873774794483,0,,,
1714162515.0502198,control,0.004263331493878723,0.9430873774794483,0,,,
1714162515.065675,control,0.004263331493878723,0.9430873774794483,0,,,
1714162515.0822139,control,0.004263331493878723,0.9430873774794483,0,,,
1714162515.0978456,control,0.004263331493878723,0.9430873774794483,0,,,
1714162515.1139271,control,0.004263331493878723,0.9430873774794483,0,,,
1714162515.142059,control,0.004162621698497378,0.9430873774794483,0,,,
1714162515.1470592,control,0.004162621698497378,0.9430873774794483,0,,,
1714162515.1630986,control,0.004129051785568245,0.9430873774794483,0,,,
1714162515.1792617,control,0.004129051785568245,0.9430873774794483,0,,,
1714162515.1952431,control,0.004129051785568245,0.9430873774794483,0,,,
1714162515.2113624,control,0.004061911987552971,0.9376507261022167,0,,,
1714162515.2273934,control,0.0039612023590025825,0.9376507261022167,0,,,
1714162515.2429025,control,0.0038940626514012643,0.9376507261022167,0,,,
1714162515.2600462,control,0.0037262135346639107,0.9376507261022167,0,,,
1714162515.286134,control,0.0033905159216008154,0.9349209036999581,0,,,
1714162515.2916446,control,0.0032898067901363983,0.9349209036999581,0,,,
1714162515.3180106,control,0.002954110155731828,0.9349209036999581,0,,,
1714162515.3240108,control,0.0029205405301589676,0.9349209036999581,0,,,
1714162515.3392317,control,0.002719122912303485,0.9321833590175354,0,,,
1714162515.35559,control,0.002719122912303485,0.9321833590175354,0,,,
1714162515.3706152,control,0.0025848446239767685,0.9321833590175354,0,,,
1714162515.3871608,control,0.0025512750666486497,0.9321833590175354,0,,,
1714162515.4032817,control,0.0024169968940805963,0.9321833590175354,0,,,
1714162515.4308262,control,0.002349857840783977,0.9294380482405054,0,,,
1714162515.4368267,control,0.002349857840783977,0.9294380482405054,0,,,
1714162515.452587,control,0.0021820102989008315,0.9266849271804737,0,,,
1714162515.4706228,control,0.002014162879963678,0.9239239512708277,0,,,
1714162515.486054,control,0.0017120378055124094,0.9211550755624077,0,,,
1714162515.501944,control,0.0012084966820715434,0.9155934430134648,0,,,
1714162515.5300636,control,0.00013427734455702498,0.9071905994812317,0,,,
1714162515.5350633,control,0.0,0.9071905994812317,0,,,
1714162515.554654,control,-0.000939941683059661,0.9043733590638868,0,,,
1714162515.5699637,control,-0.0017120378055124094,0.9015478931154057,0,,,
1714162515.5870519,control,-0.0024169968940805963,0.8987141534627355,0,,,
1714162515.6138198,control,-0.00302124942692731,0.8958720915083908,0,,,
1714162515.6192274,control,-0.0035247948708893497,0.8930216582254509,0,,,
1714162515.6468954,control,-0.0039612023590025825,0.8844196335872573,0,,,
1714162515.6523392,control,-0.00399477222615726,0.8815352159528578,0,,,
1714162515.6668448,control,-0.00399477222615726,0.8757404597163612,0,,,
1714162515.682949,control,-0.00399477222615726,0.8728300172221422,0,,,
1714162515.699012,control,-0.00399477222615726,0.8640457989658082,0,,,
1714162515.7155282,control,-0.00399477222615726,0.8522080807149879,0,,,
1714162515.7310615,control,-0.00399477222615726,0.8372043476161997,0,,,
1714162515.747172,control,-0.00399477222615726,0.80648045283843,0,,,
1714162515.7631497,control,-0.00399477222615726,0.7779694132809515,0,,,
1714162515.7907922,control,-0.00399477222615726,0.7217099362473083,0,,,
1714162515.7957923,control,-0.00399477222615726,0.7114331522353371,0,,,
1714162515.8108203,control,-0.00399477222615726,0.6691986068000356,0,,,
1714162515.8268352,control,-0.00399477222615726,0.6212635577612914,0,,,
1714162515.8433652,control,-0.00399477222615726,0.5740290754661139,0,,,
1714162515.8591092,control,-0.00399477222615726,0.5072787020410159,0,,,
1714162515.8754632,control,-0.00399477222615726,0.44482117906924334,0,,,
1714162515.9029965,control,-0.0038604928108032983,0.34797293749399727,0,,,
1714162515.907499,control,-0.0038269229789062425,0.33257498112325345,0,,,
1714162515.9341214,control,-0.003692643736813869,0.19370895502001195,0,,,
1714162515.9386299,control,-0.0036590739472864226,0.16952105635545944,0,,,
1714162515.9661803,control,-0.0035247948708893497,0,0,,,
1714162515.9712353,control,-0.0034912251218399463,0,0,,,
1714162515.998518,control,-0.0033569462035719245,0,0,,,
1714162516.0035207,control,-0.0033233764931090057,0,0,,,
1714162516.0191946,control,-0.0033233764931090057,0,0,,,
1714162516.0355637,control,-0.0033233764931090057,0,0,,,
1714162516.0510936,control,-0.0033233764931090057,0,0,,,
1714162516.0669758,control,-0.0033233764931090057,0,0,,,
1714162516.082758,control,-0.0033233764931090057,0,0,,,
1714162516.098773,control,-0.0033233764931090057,0,0,,,
1714162516.1158843,control,-0.0033233764931090057,0,0,,,
1714162516.1318326,control,-0.0033233764931090057,0,0,,,
1714162516.1477947,control,-0.0033233764931090057,0,0,,,
1714162516.163989,control,-0.0033569462035719245,0,0,,,
1714162516.1799479,control,-0.0035583646278830364,0,0,,,
1714162516.1999753,control,-0.003692643736813869,0,0,,,
1714162516.227508,control,-0.0038269229789062425,0,0,,,
1714162516.2335172,control,-0.004028342102315501,0,0,,,
1714162516.2489305,control,-0.004196191620808392,0,0,,,
1714162516.2654376,control,-0.004531891376568142,0,0,,,
1714162516.2813385,control,-0.004901162290555939,0,0,,,
1714162516.296933,control,-0.005371145400193799,0,0,,,
1714162516.313454,control,-0.005807560407863365,0,0,,,
1714162516.3408992,control,-0.006613255587731529,0,0,,,
1714162516.3448985,control,-0.006747538924173288,0,0,,,
1714162516.3608193,control,-0.007116819368639883,0,0,,,
1714162516.377345,control,-0.007452530545235029,0,0,,,
1714162516.3928604,control,-0.007653958052626581,0,0,,,
1714162516.4092174,control,-0.007788243401575394,0,0,,,
1714162516.4252942,control,-0.007788243401575394,0,0,,,
1714162516.4423993,control,-0.007788243401575394,0,0,,,
1714162516.4576604,control,-0.007788243401575394,0,0,,,
1714162516.473189,control,-0.007788243401575394,0,0,,,
1714162516.500951,control,-0.007788243401575394,0,0,,,
1714162516.5059545,control,-0.007788243401575394,0,0,,,
1714162516.5219762,control,-0.007788243401575394,0,0,,,
1714162516.5380054,control,-0.007788243401575394,0,0,,,
1714162516.5662458,control,-0.007788243401575394,0,0,,,
1714162516.5707707,control,-0.007788243401575394,0,0,,,
1714162516.5983005,control,-0.007788243401575394,0,0,,,
1714162516.6023006,control,-0.007788243401575394,0,0,,,
1714162516.6288311,control,-0.007788243401575394,0,0,,,
1714162516.633831,control,-0.007788243401575394,0,0,,,
1714162516.6498697,control,-0.007788243401575394,0,0,,,
1714162516.6659865,control,-0.007620386758707335,0,0,,,
1714162516.6820574,control,-0.007486101754031886,0,0,,,
1714162516.7092013,control,-0.007486101754031886,0,0,,,
1714162516.7142022,control,-0.007452530545235029,0,0,,,
1714162516.741301,control,-0.007452530545235029,0,0,,,
1714162516.7453,control,-0.007452530545235029,0,0,,,
1714162516.7620258,control,-0.007452530545235029,0,0,,,
1714162516.7780619,control,-0.007452530545235029,0,0,,,
1714162516.794127,control,-0.007452530545235029,0,0,,,
1714162516.8221745,control,-0.007452530545235029,0,0,,,
1714162516.8261752,control,-0.007452530545235029,0,0,,,
1714162516.8417444,control,-0.007452530545235029,0,0,,,
1714162516.857868,control,-0.007452530545235029,0,0,,,
1714162516.8740287,control,-0.007452530545235029,0,0,,,
1714162516.9012434,control,-0.007452530545235029,0,0,,,
1714162516.9062433,control,-0.007452530545235029,0,0,,,
1714162516.93314,control,-0.007452530545235029,0,0,,,
1714162516.946818,control,-0.007586815481963918,0,0,,,
1714162516.9633634,control,-0.007653958052626581,0,0,,,
1714162516.9789157,control,-0.0076875293637973345,0.024407952688081158,0,,,
1714162516.9950092,control,-0.007788243401575394,0.06620238700686021,0,,,
1714162517.0225508,control,-0.00798967195313854,0.12565593800669816,0,,,
1714162517.0270543,control,-0.008023243440986583,0.12565593800669816,0,,,
1714162517.0431116,control,-0.008325387654478352,0.13838607675206616,0,,,
1714162517.0591443,control,-0.008661105232324755,0.15095092562560875,0,,,
1714162517.075606,control,-0.008996824762358179,0.15095092562560875,0,,,
1714162517.1028173,control,-0.009533980259864096,0.1571726969083409,0,,,
1714162517.106816,control,-0.009567552657903561,0.16335472196081402,0,,,
1714162517.1349802,control,-0.01023900524807629,0.18169057485634932,0,,,
1714162517.139097,control,-0.01023900524807629,0.18771842223633461,0,,,
1714162517.1556017,control,-0.010608308068942402,0.21146121529928097,0,,,
1714162517.1711793,control,-0.010910467069890104,0.22889367883523715,0,,,
1714162517.1872962,control,-0.011078334038748406,0.24601766394382407,0,,,
1714162517.2143333,control,-0.011246201631892232,0.28483322710238435,0,,,
1714162517.2188551,control,-0.011246201631892232,0.2902741531975883,0,,,
1714162517.234974,control,-0.011246201631892232,0.3063544237406597,0,,,
1714162517.261798,control,-0.011246201631892232,0.31692805238137467,0,,,
1714162517.2667992,control,-0.011246201631892232,0.31692805238137467,0,,,
1714162517.2941568,control,-0.011246201631892232,0.32217185588316455,0,,,
1714162517.2986279,control,-0.011246201631892232,0.32217185588316455,0,,,
1714162517.326887,control,-0.011078334038748406,0.32217185588316455,0,,,
1714162517.3308928,control,-0.011044760595336685,0.32217185588316455,0,,,
1714162517.3473558,control,-0.010776173937930643,0.32217185588316455,0,,,
1714162517.363375,control,-0.010541161889258872,0.32217185588316455,0,,,
1714162517.3787973,control,-0.010071141258719904,0.32217185588316455,0,,,
1714162517.3953037,control,-0.009533980259864096,0.32738739779694637,0,,,
1714162517.4109716,control,-0.008728248979734673,0.3377349040157591,0,,,
1714162517.4400358,control,-0.0067811097961152965,0.3581037903641062,0,,,
1714162517.4450345,control,-0.006445401751988056,0.3631297208009001,0,,,
1714162517.4603071,control,-0.0050690131418120185,0.36812968351497566,0,,,
1714162517.4873967,control,-0.0024169968940805963,0.3829764145132353,0,,,
1714162517.4924035,control,-0.001947023944695216,0.3829764145132353,0,,,
1714162517.5084352,control,-0.00010070800815296367,0.3878751353819707,0,,,
1714162517.523944,control,0.0018463155745150268,0.3927491831883587,0,,,
1714162517.5398228,control,0.004061911987552971,0.39761741078017865,0,,,
1714162517.555365,control,0.006546114009247007,0.39761741078017865,0,,,
1714162517.584016,control,0.01117905451911487,0.39761741078017865,0,,,
1714162517.5885246,control,0.011884104346159203,0.39761741078017865,0,,,
1714162517.604165,control,0.014637275679045637,0.39761741078017865,0,,,
1714162517.619898,control,0.0172227719280338,0.39761741078017865,0,,,
1714162517.635776,control,0.019472675533364143,0.39761741078017865,0,,,
1714162517.6638992,control,0.022226559427318316,0.39761741078017865,0,,,
1714162517.6790633,control,0.022965461927547514,0.39761741078017865,0,,,
1714162517.6942098,control,0.023301334937756928,0.39761741078017865,0,,,
1714162517.7102447,control,0.023435685608856855,0.3878751353819707,0,,,
1714162517.7379673,control,0.023301334937756928,0.3780527695141902,0,,,
1714162517.741966,control,0.023301334937756928,0.3780527695141902,0,,,
1714162517.7698224,control,0.023301334937756928,0.36812968351497566,0,,,
1714162517.7738264,control,0.023301334937756928,0.36812968351497566,0,,,
1714162517.7898326,control,0.023301334937756928,0.36812968351497566,0,,,
1714162517.8053532,control,0.02346927340856321,0.36812968351497566,0,,,
1714162517.8223784,control,0.023637213202474472,0.36812968351497566,0,,,
1714162517.8496346,control,0.02393950819599427,0.36812968351497566,0,,,
1714162517.8646162,control,0.02393950819599427,0.36812968351497566,0,,,
1714162517.8802419,control,0.02393950819599427,0.36812968351497566,0,,,
1714162517.8953874,control,0.02393950819599427,0.36812968351497566,0,,,
1714162517.9238243,control,0.02393950819599427,0.3780527695141902,0,,,
1714162517.9283345,control,0.023838742715012053,0.3780527695141902,0,,,
1714162517.9439468,control,0.023637213202474472,0.3829764145132353,0,,,
1714162517.9710374,control,0.023267747401534197,0.3878751353819707,0,,,
1714162517.9760406,control,0.02259600759478228,0.39761741078017865,0,,,
1714162518.003063,control,0.02118541961747817,0.4262150514850285,0,,,
1714162518.0085893,control,0.020715242627873495,0.43556283148517627,0,,,
1714162518.0241125,control,0.01960700414512276,0.45399178927524453,0,,,
1714162518.0522134,control,0.017289930592599083,0.5158786685404688,0,,,
1714162518.0562124,control,0.016920559850737475,0.5244028813951171,0,,,
1714162518.072234,control,0.015342390163079634,0.5659327652817765,0,,,
1714162518.0872576,control,0.01373072119750794,0.5979344774002306,0,,,
1714162518.1042037,control,0.012018400869271396,0.6212635577612914,0,,,
1714162518.1310945,control,0.00916468528309564,0.6691986068000356,0,,,
1714162518.136095,control,0.00856038975743469,0.6799313016534824,0,,,
1714162518.1524713,control,0.006848251585926903,0.7114331522353371,0,,,
1714162518.167609,control,0.005270434541171326,0.7251114209440678,0,,,
1714162518.1843657,control,0.0037933531556344348,0.7419417825477788,0,,,
1714162518.2001925,control,0.0025512750666486497,0.7617592955673048,0,,,
1714162518.2157023,control,0.0015106212662533923,0.7811791057752773,0,,,
1714162518.24395,control,0.0003021240326300191,0.815800474153604,0,,,
1714162518.2591414,control,-0.00010070800815296367,0.8341754831720845,0,,,
1714162518.2746477,control,-0.00023498535588764956,0.8462344728585406,0,,,
1714162518.2910051,control,-0.00023498535588764956,0.8610999172391722,0,,,
1714162518.3179424,control,-0.00023498535588764956,0.8786421752334822,0,,,
1714162518.3229463,control,-0.00023498535588764956,0.8815352159528578,0,,,
1714162518.350852,control,-0.00010070800815296367,0.9015478931154057,0,,,
1714162518.354855,control,0.0,0.9043733590638868,0,,,
1714162518.3708937,control,0.0002685546939561999,0.9183782547191166,0,,,
1714162518.3994253,control,0.0011413579174894652,0.9403728696690115,0,,,
1714162518.4034257,control,0.0013427742445255475,0.9430873774794483,0,,,
1714162518.4298105,control,0.003054819072701254,0.9618786747083273,0,,,
1714162518.434815,control,0.0033905159216008154,0.9618786747083273,0,,,
1714162518.4528396,control,0.004968302597389185,0.9698217130085646,0,,,
1714162518.4683175,control,0.006546114009247007,0.9777000854222132,0,,,
1714162518.5079663,control,0.01151479110305355,1,0,,,
1714162518.5119662,control,0.012018400869271396,1,0,,,
1714162518.5385065,control,0.015342390163079634,1,0,,,
1714162518.5435054,control,0.015846052663512973,1,0,,,
1714162518.5700433,control,0.018801042914584568,1,0,,,
1714162518.58511,control,0.019976411489145373,1,0,,,
1714162518.6001542,control,0.021017498200042704,1,0,,,
1714162518.6152864,control,0.021722776225178177,1,0,,,
1714162518.643829,control,0.022293731367375273,1,0,,,
1714162518.6478589,control,0.022394489654679724,1,0,,,
1714162518.664156,control,0.022394489654679724,1,0,,,
1714162518.68018,control,0.02242807585134285,1,0,,,
1714162518.696239,control,0.02242807585134285,1,0,,,
1714162518.7238557,control,0.02242807585134285,1,0,,,
1714162518.7280524,control,0.02242807585134285,1,0,,,
1714162518.7440898,control,0.022629594096025614,1,0,,,
1714162518.7597194,control,0.022931874912605385,1,0,,,
1714162518.7752273,control,0.023301334937756928,1,0,,,
1714162518.8039732,control,0.024174629544661354,1,0,,,
1714162518.808085,control,0.024308985798740204,1,0,,,
1714162518.8241322,control,0.024980780323005727,1,0,,,
1714162518.852326,control,0.026190067662009594,1,0,,,
1714162518.855326,control,0.02632443758257811,1,0,,,
1714162518.8719218,control,0.026895520401430405,1,0,,,
1714162518.8879535,control,0.0272986482183356,1,0,,,
1714162518.9043071,control,0.02760099989235642,1,0,,,
1714162518.9320757,control,0.027634594833064043,1,0,,,
1714162518.9360914,control,0.027634594833064043,1,0,,,
1714162518.9524984,control,0.027634594833064043,1,0,,,
1714162518.9685638,control,0.027634594833064043,1,0,,,
1714162518.9840705,control,0.027634594833064043,1,0,,,
1714162519.0110738,control,0.02760099989235642,1,0,,,
1714162519.0160732,control,0.02760099989235642,1,0,,,
1714162519.0325143,control,0.02760099989235642,1,0,,,
1714162519.04799,control,0.027433026121118646,1,0,,,
1714162519.0640624,control,0.0272986482183356,1,0,,,
1714162519.0912716,control,0.026626773384466784,1,0,,,
1714162519.0962718,control,0.026525994246082745,1,0,,,
1714162519.123379,control,0.025316685997741558,1,0,,,
1714162519.137992,control,0.024644880281953614,1,0,,,
1714162519.1544087,control,0.023637213202474472,1,0,,,
1714162519.1699681,control,0.02273035390623113,1,0,,,
1714162519.197997,control,0.02118541961747817,1,0,,,
1714162519.202371,control,0.021017498200042704,1,0,,,
1714162519.2300029,control,0.019976411489145373,1,0,,,
1714162519.2455142,control,0.019674168715942564,1,0,,,
1714162519.261598,control,0.019472675533364143,1,0,,,
1714162519.2774227,control,0.019338347624072258,1,0,,,
1714162519.3051133,control,0.019338347624072258,1,0,,,
1714162519.3181381,control,0.019338347624072258,1,0,,,
1714162519.3346062,control,0.019338347624072258,1,0,,,
1714162519.3495834,control,0.019338347624072258,1,0,,,
1714162519.3652947,control,0.019338347624072258,1,0,,,
1714162519.3823211,control,0.019338347624072258,1,0,,,
1714162519.4098701,control,0.019338347624072258,1,0,,,
1714162519.4239228,control,0.019338347624072258,1,0,,,
1714162519.4393373,control,0.01927118393133588,1,0,,,
1714162519.4680073,control,0.018633137432865866,1,0,,,
1714162519.4720185,control,0.018465233001396117,1,0,,,
1714162519.4872072,control,0.01809584690236949,1,0,,,
1714162519.502724,control,0.017625726266327857,1,0,,,
1714162519.518665,control,0.01705487594478864,1,0,,,
1714162519.5453026,control,0.016148254005478403,1,0,,,
1714162519.5508184,control,0.016013941937175778,1,0,,,
1714162519.5668862,control,0.01547669939173311,1,0,,,
1714162519.5948641,control,0.014469393449113537,1,0,,,
1714162519.610828,control,0.013932175746503461,1,0,,,
1714162519.6268446,control,0.01326066488821831,1,0,,,
1714162519.643026,control,0.012589165986796897,1,0,,,
1714162519.672223,control,0.011380496162251357,1,0,,,
1714162519.6769147,control,0.011212628062866449,1,0,,,
1714162519.703995,control,0.010104714010887129,1,0,,,
1714162519.71803,control,0.009500407883314273,1,0,,,
1714162519.733296,control,0.00879539280583752,1,0,,,
1714162519.7488155,control,0.00809038647101021,1,0,,,
1714162519.7769806,control,0.006512543242173983,1,0,,,
1714162519.7815053,control,0.0061768363662808344,1,0,,,
1714162519.7975137,control,0.005270434541171326,1,0,,,
1714162519.8245609,control,0.0032898067901363983,1,0,,,
1714162519.8290837,control,0.003054819072701254,1,0,,,
1714162519.8451502,control,0.0017120378055124094,1,0,,,
1714162519.8719645,control,-0.000436401394891156,1,0,,,
1714162519.8774652,control,-0.000738525524893808,1,0,,,
1714162519.9051645,control,-0.0029876797879627216,1,0,,,
1714162519.9201853,control,-0.004162621698497378,1,0,,,
1714162519.9365876,control,-0.005203294028009981,1,0,,,
1714162519.9516435,control,-0.005941842386010439,1,0,,,
1714162519.9798784,control,-0.006814680683341278,1,0,,,
1714162519.9838793,control,-0.006915393437479781,1,0,,,
1714162520.0000336,control,-0.007116819368639883,1,0,,,
1714162520.0270517,control,-0.007116819368639883,1,0,,,
1714162520.032227,control,-0.007116819368639883,1,0,,,
1714162520.0482175,control,-0.007116819368639883,1,0,,,
1714162520.0643768,control,-0.007116819368639883,1,0,,,
1714162520.0800524,control,-0.007116819368639883,1,0,,,
1714162520.1069543,control,-0.007116819368639883,1,0,,,
1714162520.1119635,control,-0.007116819368639883,1,0,,,
1714162520.139491,control,-0.007116819368639883,1,0,,,
1714162520.154003,control,-0.007116819368639883,1,0,,,
1714162520.1706095,control,-0.0071839614732117,1,0,,,
1714162520.1856246,control,-0.007251103642551727,1,0,,,
1714162520.214368,control,-0.007318245877265359,1,0,,,
1714162520.217877,control,-0.007452530545235029,1,0,,,
1714162520.2342691,control,-0.007486101754031886,1,0,,,
1714162520.2623353,control,-0.007620386758707335,1,0,,,
1714162520.2653348,control,-0.007620386758707335,1,0,,,
1714162520.2933166,control,-0.007620386758707335,1,0,,,
1714162520.3088248,control,-0.007620386758707335,1,0,,,
1714162520.3351564,control,-0.007620386758707335,1,0,,,
1714162520.3402517,control,-0.007620386758707335,1,0,,,
1714162520.3555398,control,-0.007620386758707335,1,0,,,
1714162520.3830924,control,-0.007620386758707335,1,0,,,
1714162520.3881736,control,-0.007620386758707335,1,0,,,
1714162520.415192,control,-0.007620386758707335,1,0,,,
1714162520.4300265,control,-0.007620386758707335,1,0,,,
1714162520.4455862,control,-0.007620386758707335,1,0,,,
1714162520.4732974,control,-0.007620386758707335,1,0,,,
1714162520.4784205,control,-0.007620386758707335,1,0,,,
1714162520.4938629,control,-0.007620386758707335,1,0,,,
1714162520.5210838,control,-0.007620386758707335,1,0,,,
1714162520.5260875,control,-0.007620386758707335,1,0,,,
1714162520.5419927,control,-0.007620386758707335,1,0,,,
1714162520.569095,control,-0.007620386758707335,1,0,,,
1714162520.5740912,control,-0.007620386758707335,1,0,,,
1714162520.5901673,control,-0.007620386758707335,1,0,,,
1714162520.6171894,control,-0.007620386758707335,1,0,,,
1714162520.6216116,control,-0.007620386758707335,1,0,,,
1714162520.6380143,control,-0.007620386758707335,1,0,,,
1714162520.6540446,control,-0.007620386758707335,1,0,,,
1714162520.6700668,control,-0.007620386758707335,1,0,,,
1714162520.685915,control,-0.007586815481963918,1,0,,,
1714162520.7014916,control,-0.007486101754031886,1,0,,,
1714162520.7177892,control,-0.007452530545235029,1,0,,,
1714162520.745829,control,-0.007318245877265359,1,0,,,
1714162520.7598588,control,-0.007284674751699005,1,0,,,
1714162520.774877,control,-0.007284674751699005,1,0,,,
1714162520.790928,control,-0.007251103642551727,1,0,,,
1714162520.8069577,control,-0.007251103642551727,1,0,,,
1714162520.8230333,control,-0.007251103642551727,1,0,,,
1714162520.839063,control,-0.007251103642551727,1,0,,,
1714162520.8668318,control,-0.007251103642551727,1,0,,,
1714162520.881445,control,-0.0071839614732117,1,0,,,
1714162520.8959568,control,-0.0071839614732117,1,0,,,
1714162520.911839,control,-0.0071839614732117,1,0,,,
1714162520.9389856,control,-0.0071839614732117,1,0,,,
1714162520.9578733,control,-0.0071839614732117,1,0,,,
1714162520.984441,control,-0.0071839614732117,1,0,,,
1714162520.9889534,control,-0.0071839614732117,1,0,,,
1714162521.005465,control,-0.0071839614732117,1,0,,,
1714162521.0221462,control,-0.0071839614732117,1,0,,,
1714162521.0381625,control,-0.0071839614732117,1,0,,,
1714162521.0647483,control,-0.0071839614732117,0.9984007977363134,0,,,
1714162521.0777657,control,-0.0071839614732117,0.9881057921326963,0,,,
1714162521.0940218,control,-0.0071839614732117,0.9777000854222132,0,,,
1714162521.1100526,control,-0.0071839614732117,0.972454970143269,0,,,
1714162521.1379218,control,-0.0071839614732117,0.9618786747083273,0,,,
1714162521.1419277,control,-0.0071839614732117,0.9618786747083273,0,,,
1714162521.1579585,control,-0.0071839614732117,0.9538699001714078,0,,,
1714162521.174484,control,-0.0071839614732117,0.9430873774794483,0,,,
1714162521.1900158,control,-0.0071839614732117,0.9239239512708277,0,,,
1714162521.2073226,control,-0.0071839614732117,0.9015478931154057,0,,,
1714162521.2343686,control,-0.0071839614732117,0.8669827402182236,0,,,
1714162521.2388878,control,-0.0071839614732117,0.8610999172391722,0,,,
1714162521.2550735,control,-0.0071839614732117,0.8402237616098741,0,,,
1714162521.2825706,control,-0.0071839614732117,0.7907447988173995,0,,,
1714162521.287076,control,-0.0071839614732117,0.7843781876965453,0,,,
1714162521.3030162,control,-0.0071839614732117,0.7650231145123714,0,,,
1714162521.330955,control,-0.0071839614732117,0.7452730126871808,0,,,
1714162521.3349547,control,-0.0071839614732117,0.7452730126871808,0,,,
1714162521.3617907,control,-0.0071839614732117,0.7419417825477788,0,,,
1714162521.3788252,control,-0.0071839614732117,0.7419417825477788,0,,,
1714162521.3939843,control,-0.0071839614732117,0.7419417825477788,0,,,
1714162521.4100716,control,-0.0071839614732117,0.7419417825477788,0,,,
1714162521.4262714,control,-0.0071839614732117,0.7419417825477788,0,,,
1714162521.4423757,control,-0.0071839614732117,0.7419417825477788,0,,,
1714162521.4710763,control,-0.0071839614732117,0.7485928149134281,0,,,
1714162521.4760814,control,-0.0071839614732117,0.7485928149134281,0,,,
1714162521.4907227,control,-0.0071839614732117,0.751901267366327,0,,,
1714162521.5186884,control,-0.0071839614732117,0.7584844315286202,0,,,
1714162521.5226958,control,-0.0071839614732117,0.7584844315286202,0,,,
1714162521.5386894,control,-0.0071839614732117,0.7584844315286202,0,,,
1714162521.5551898,control,-0.0071839614732117,0.7584844315286202,0,,,
1714162521.571217,control,-0.0071839614732117,0.7584844315286202,0,,,
1714162521.5981054,control,-0.0071503904128676025,0.7617592955673048,0,,,
1714162521.6126573,control,-0.007116819368639883,0.7617592955673048,0,,,
1714162521.6391263,control,-0.006814680683341278,0.7551984473869771,0,,,
1714162521.6441271,control,-0.006814680683341278,0.7551984473869771,0,,,
1714162521.6710346,control,-0.006445401751988056,0.7485928149134281,0,,,
1714162521.6859705,control,-0.006210406989973087,0.7385990455456733,0,,,
1714162521.7008643,control,-0.005941842386010439,0.7251114209440678,0,,,
1714162521.717397,control,-0.00560613783181513,0.7010460607425574,0,,,
1714162521.7330785,control,-0.005404715710645415,0.6436828168006246,0,,,
1714162521.748669,control,-0.005203294028009981,0.6096618436644565,0,,,
1714162521.7653258,control,-0.00503544294901379,0.5495340567186471,0,,,
1714162521.792003,control,-0.004834022027908725,0.4262150514850285,0,,,
1714162521.8053386,control,-0.004834022027908725,0.3581037903641062,0,,,
1714162521.8209097,control,-0.004834022027908725,0.27390101881707407,0,,,
1714162521.8371255,control,-0.004834022027908725,0.16335472196081402,0,,,
1714162521.864081,control,-0.004834022027908725,0,0,,,
1714162521.8791127,control,-0.004834022027908725,0,0,,,
1714162521.904746,control,-0.004834022027908725,0,0,,,
1714162521.9094446,control,-0.004834022027908725,0,0,,,
1714162521.9261818,control,-0.004834022027908725,0,0,,,
