timestamp,event_type,steering,throttle,brake,instruction,user_response,button_pressed
1714162127.412567,control,0.0,0.6212635577612914,0.6212635577612914,,,
1714162127.4180925,control,0.0,0.6212635577612914,0.6212635577612914,,,
1714162127.433116,control,0.0,0.6212635577612914,0.6212635577612914,,,
1714162127.4596193,control,0.0,0.6212635577612914,0.6212635577612914,,,
1714162127.4649246,control,0.0,0.6212635577612914,0.6212635577612914,,,
1714162127.49137,control,0.0,0.6212635577612914,0.6212635577612914,,,
1714162127.4978797,control,0.0,0.6212635577612914,0.6212635577612914,,,
1714162127.5130405,control,0.0,0.6212635577612914,0.6212635577612914,,,
1714162127.5299401,control,0.0,0.6212635577612914,0.6212635577612914,,,
1714162127.556056,control,0.0,0.6212635577612914,0.6212635577612914,,,
1714162127.5613804,control,0.0,0.6212635577612914,0.6212635577612914,,,
1714162127.5770342,control,0.0,0.6212635577612914,0.6212635577612914,,,
1714162127.5929282,control,0.0,0.6212635577612914,0.6212635577612914,,,
1714162127.609178,control,0.0,0.6212635577612914,0.6212635577612914,,,
1714162127.6618583,control,0.0,0.6212635577612914,0.6212635577612914,,,
1714162127.6783102,control,0.0,0.6212635577612914,0.6212635577612914,,,
1714162127.6918344,control,0.0,0.6212635577612914,0.6212635577612914,,,
1714162127.710446,control,0.0,0.6212635577612914,0.6212635577612914,,,
1714162127.7363665,control,0.0,0.6212635577612914,0.6212635577612914,,,
1714162127.7413716,control,0.0,0.6212635577612914,0.6212635577612914,,,
1714162127.756785,control,0.0,0.6212635577612914,0.6212635577612914,,,
1714162127.7838023,control,0.0,0.6212635577612914,0.6212635577612914,,,
1714162127.799341,control,0.0,0.6212635577612914,0.6212635577612914,,,
1714162127.8153532,control,0.0,0.6212635577612914,0.6212635577612914,,,
1714162127.8310506,control,0.0,0.6212635577612914,0.6212635577612914,,,
1714162127.8468747,control,0.0,0.6212635577612914,0.6212635577612914,,,
1714162127.8741882,control,0.0,0.6212635577612914,0.6212635577612914,,,
1714162127.8792489,control,0.0,0.6212635577612914,0.6212635577612914,,,
1714162127.8947594,control,0.0,0.6212635577612914,0.6212635577612914,,,
1714162127.9214003,control,0.0,0.6212635577612914,0.6212635577612914,,,
1714162127.9364283,control,0.0,0.6212635577612914,0.6212635577612914,,,
1714162127.9630623,control,0.0,0.6212635577612914,0.6212635577612914,,,
1714162127.968272,control,0.0,0.6212635577612914,0.6212635577612914,,,
1714162127.983221,control,0.0,0.6212635577612914,0.6212635577612914,,,
1714162128.0112517,control,0.0,0.6212635577612914,0.6212635577612914,,,
1714162128.0173085,control,0.0,0.6212635577612914,0.6212635577612914,,,
1714162128.0318232,control,0.0,0.6212635577612914,0.6212635577612914,,,
1714162128.059371,control,0.00033569337198476566,0,0,,,
1714162128.07389,control,0.00033569337198476566,0,0,,,
1714162128.0892096,control,0.00033569337198476566,0,0,,,
1714162128.1059074,control,0.00033569337198476566,0,0,,,
1714162128.122418,control,0.00033569337198476566,0,0,,,
1714162128.1489782,control,0.00033569337198476566,0,0,,,
1714162128.1539774,control,0.00033569337198476566,0,0,,,
1714162128.1705272,control,0.00033569337198476566,0,0,,,
1714162128.1857443,control,0.00033569337198476566,0,0,,,
1714162128.2025652,control,0.00033569337198476566,0,0,,,
1714162128.2185793,control,0.00033569337198476566,0,0,,,
1714162128.2461998,control,0.00033569337198476566,0,0,,,
1714162128.2512043,control,0.00033569337198476566,0,0,,,
1714162128.2788048,control,0.00033569337198476566,0,0,,,
1714162128.2949967,control,0.00033569337198476566,0,0,,,
1714162128.3236845,control,0.00033569337198476566,0,0,,,
1714162128.339114,control,0.00033569337198476566,0,0,,,
1714162128.366148,control,0.00033569337198476566,0,0,,,
1714162128.38221,control,0.00033569337198476566,0,0,,,
1714162128.4084795,control,0.00033569337198476566,0,0,,,
1714162128.4134896,control,0.00033569337198476566,0,0,,,
1714162128.4290006,control,0.00033569337198476566,0,0,,,
1714162128.4566162,control,0.00033569337198476566,0,0,,,
1714162128.473263,control,0.00033569337198476566,0,0,,,
1714162128.4879274,control,0.00033569337198476566,0,0,,,
1714162128.5049474,control,0.00033569337198476566,0,0,,,
1714162128.5198505,control,0.00033569337198476566,0,0,,,
1714162128.5356317,control,0.00033569337198476566,0,0,,,
1714162128.5651784,control,0.00033569337198476566,0,0,,,
1714162128.5917573,control,0.00033569337198476566,0,0,,,
1714162128.5972683,control,0.00033569337198476566,0,0,,,
1714162128.6126616,control,0.00033569337198476566,0,0,,,
1714162128.6399162,control,0.00033569337198476566,0,0,,,
1714162128.645092,control,0.00033569337198476566,0,0,,,
1714162128.6609354,control,0.00033569337198476566,0,0,,,
1714162128.6880758,control,0.00033569337198476566,0,0,,,
1714162128.6940837,control,0.00033569337198476566,0,0,,,
1714162128.709024,control,0.00033569337198476566,0,0,,,
1714162128.7361093,control,0.00033569337198476566,0,0,,,
1714162128.7511983,control,0.00033569337198476566,0,0,,,
1714162128.7658024,control,0.00033569337198476566,0,0,,,
1714162128.7941508,control,0.00033569337198476566,0,0,,,
1714162128.8091857,control,0.00033569337198476566,0,0,,,
1714162128.8251975,control,0.00033569337198476566,0,0,,,
1714162128.842227,control,0.00033569337198476566,0,0,,,
1714162128.8689733,control,0.00033569337198476566,0,0,,,
1714162128.873978,control,0.00033569337198476566,0.0028277482171481516,0,,,
1714162128.8901882,control,0.00033569337198476566,0.038558918418420296,0,,,
1714162128.9170692,control,0.00033569337198476566,0.09968198510957893,0,,,
1714162128.9321628,control,0.00033569337198476566,0.11275610259628221,0,,,
1714162128.9591894,control,0.00033569337198476566,0.12565593800669816,0,,,
1714162128.9733515,control,0.00033569337198476566,0.12565593800669816,0,,,
1714162128.990012,control,0.00033569337198476566,0.11275610259628221,0,,,
1714162129.0068672,control,0.00033569337198476566,0.11275610259628221,0,,,
1714162129.0333953,control,0.00033569337198476566,0.10624112294099608,0,,,
1714162129.0409055,control,0.00033569337198476566,0.10624112294099608,0,,,
1714162129.0669243,control,0.00033569337198476566,0.09307808641129256,0,,,
1714162129.0739245,control,0.00033569337198476566,0.08642881173187633,0,,,
1714162129.0889413,control,0.00033569337198476566,0.07973353318972798,0,,,
1714162129.105078,control,0.00033569337198476566,0.07973353318972798,0,,,
1714162129.1212058,control,0.00033569337198476566,0.07973353318972798,0,,,
1714162129.137251,control,0.00033569337198476566,0.09307808641129256,0,,,
1714162129.1529312,control,0.00033569337198476566,0.09307808641129256,0,,,
1714162129.1690614,control,-0.013495692297520675,0.09307808641129256,0,,,
1714162129.1963549,control,-0.01504019641455519,0.09307808641129256,0,,,
1714162129.2013533,control,-0.015409544707929794,0.09307808641129256,0,,,
1714162129.2170506,control,-0.016618350863306774,0.09968198510957893,0,,,
1714162129.2448525,control,-0.01849881380412473,0.09968198510957893,0,,,
1714162129.2498608,control,-0.018901786711675042,0.09968198510957893,0,,,
1714162129.2659853,control,-0.020077159888219637,0.09968198510957893,0,,,
1714162129.2810757,control,-0.021151835238755967,0.09968198510957893,0,,,
1714162129.297066,control,-0.02212580189293572,0.09968198510957893,0,,,
1714162129.3232782,control,-0.023200572486420677,0.09968198510957893,0,,,
1714162129.33935,control,-0.023737977717854585,0.10624112294099608,0,,,
1714162129.3548677,control,-0.0240402741628487,0.10624112294099608,0,,,
1714162129.3711324,control,-0.02424180756236416,0.10624112294099608,0,,,
1714162129.387156,control,-0.024443342929938792,0.10624112294099608,0,,,
1714162129.4131794,control,-0.025115141912610522,0.11275610259628221,0,,,
1714162129.4309187,control,-0.02578696355137992,0.12565593800669816,0,,,
1714162129.4573965,control,-0.027029895363347933,0.132041939961842,0,,,
1714162129.4623964,control,-0.027197865438015306,0.132041939961842,0,,,
1714162129.4777513,control,-0.027701784901546476,0.13838607675206616,0,,,
1714162129.5058427,control,-0.02834010310312861,0.1571726969083409,0,,,
1714162129.5205026,control,-0.028575278756348417,0.16952105635545944,0,,,
1714162129.5470903,control,-0.029079237253245446,0.21146121529928097,0,,,
1714162129.5520911,control,-0.029213628667754694,0.21146121529928097,0,,,
1714162129.5678585,control,-0.02958321050884515,0.23463540773444125,0,,,
1714162129.595108,control,-0.03028879834916742,0.2628438985038368,0,,,
1714162129.600112,control,-0.03028879834916742,0.2628438985038368,0,,,
1714162129.6151383,control,-0.030759206939556843,0.28483322710238435,0,,,
1714162129.6321878,control,-0.031162425119801714,0.3063544237406597,0,,,
1714162129.6489685,control,-0.03163285913428636,0.32217185588316455,0,,,
1714162129.6641023,control,-0.03200249566226525,0.34797293749399727,0,,,
1714162129.691119,control,-0.032204119262417126,0.3631297208009001,0,,,
1714162129.6962574,control,-0.032204119262417126,0.36812968351497566,0,,,
1714162129.7119453,control,-0.032204119262417126,0.3780527695141902,0,,,
1714162129.7389333,control,-0.032204119262417126,0.3878751353819707,0,,,
1714162129.7449343,control,-0.032204119262417126,0.3927491831883587,0,,,
1714162129.759962,control,-0.032204119262417126,0.4024427580997696,0,,,
1714162129.7759912,control,-0.032204119262417126,0.4167760944304628,0,,,
1714162129.793512,control,-0.032204119262417126,0.4262150514850285,0,,,
1714162129.8092303,control,-0.032204119262417126,0.43556283148517627,0,,,
1714162129.824783,control,-0.032204119262417126,0.44020307724909813,0,,,
1714162129.8418827,control,-0.032204119262417126,0.44482117906924334,0,,,
1714162129.8571146,control,-0.032204119262417126,0.44941734729060534,0,,,
1714162129.8832846,control,-0.032204119262417126,0.45399178927524453,0,,,
1714162129.889795,control,-0.032204119262417126,0.45399178927524453,0,,,
1714162129.9051406,control,-0.032204119262417126,0.45399178927524453,0,,,
1714162129.9203467,control,-0.032204119262417126,0.4630763094034289,0,,,
1714162129.9378567,control,-0.032204119262417126,0.4675867878551181,0,,,
1714162129.952999,control,-0.032204119262417126,0.48099344051233106,0,,,
1714162129.9807808,control,-0.032204119262417126,0.5286369949748542,0,,,
1714162129.9862957,control,-0.032204119262417126,0.5412293035041142,0,,,
1714162130.0018098,control,-0.032204119262417126,0.5780519701692741,0,,,
1714162130.0304248,control,-0.032204119262417126,0.6174018699744762,0,,,
1714162130.037355,control,-0.032204119262417126,0.6212635577612914,0,,,
1714162130.0527122,control,-0.03223772344963188,0.6287945016040417,0,,,
1714162130.0700552,control,-0.032540164416662805,0.6436828168006246,0,,,
1714162130.0993764,control,-0.03354834423335977,0.6510419503633152,0,,,
1714162130.1048844,control,-0.03378359591782077,0.6547006367625572,0,,,
1714162130.1258726,control,-0.03479186005283334,0.6547006367625572,0,,,
1714162130.1528425,control,-0.036136322500110306,0.6547006367625572,0,,,
1714162130.16713,control,-0.036842217209507186,0.6547006367625572,0,,,
1714162130.1831923,control,-0.03734645012503185,0.6547006367625572,0,,,
1714162130.1991632,control,-0.03774985009992233,0.6547006367625572,0,,,
1714162130.2149777,control,-0.037917937036327946,0.6510419503633152,0,,,
1714162130.2421367,control,-0.03801879022455067,0.6510419503633152,0,,,
1714162130.258187,control,-0.03801879022455067,0.6473693789729349,0,,,
1714162130.285214,control,-0.03801879022455067,0.6436828168006246,0,,,
1714162130.2904956,control,-0.03801879022455067,0.6399821568419266,0,,,
1714162130.3060715,control,-0.03805240812547805,0.6362672908600797,0,,,
1714162130.3219664,control,-0.03805240812547805,0.6325381093670247,0,,,
1714162130.3391263,control,-0.03805240812547805,0.6287945016040417,0,,,
1714162130.355238,control,-0.03805240812547805,0.6287945016040417,0,,,
1714162130.3828597,control,-0.03805240812547805,0.6287945016040417,0,,,
1714162130.3991044,control,-0.03805240812547805,0.6250363555220111,0,,,
1714162130.413954,control,-0.03805240812547805,0.6250363555220111,0,,,
1714162130.4301696,control,-0.03805240812547805,0.6250363555220111,0,,,
1714162130.4461915,control,-0.03805240812547805,0.6212635577612914,0,,,
1714162130.4622872,control,-0.03805240812547805,0.6212635577612914,0,,,
1714162130.4783099,control,-0.03805240812547805,0.6212635577612914,0,,,
1714162130.5060797,control,-0.038186880588815746,0.6212635577612914,0,,,
1714162130.5208933,control,-0.03822049891993773,0.6212487913919204,0,,,
1714162130.535491,control,-0.038455829657535474,0.6212487913919204,0,,,
1714162130.5521212,control,-0.03879202380999733,0.6212487913919204,0,,,
1714162130.568096,control,-0.03922908930995573,0.6212487913919204,0,,,
1714162130.5947852,control,-0.04013688874212965,0.6212487913919204,0,,,
1714162130.600796,control,-0.04030500695192036,0.6212487913919204,0,,,
1714162130.6268427,control,-0.04185180243069575,0.6212487913919204,0,,,
1714162130.6330624,control,-0.042288976199269954,0.6212487913919204,0,,,
1714162130.6489658,control,-0.04346606317308158,0.6212487913919204,0,,,
1714162130.676117,control,-0.045484208092259226,0.6212487913919204,0,,,
1714162130.682126,control,-0.04588788092585614,0.6212487913919204,0,,,
1714162130.6981654,control,-0.04703170210504933,0.6212487913919204,0,,,
1714162130.713258,control,-0.047771886944037806,0.6212487913919204,0,,,
1714162130.7408414,control,-0.048276588321879754,0.6212487913919204,0,,,
1714162130.7570205,control,-0.048276588321879754,0.6212487913919204,0,,,
1714162130.774832,control,-0.04810835181550785,0.6212487913919204,0,,,
1714162130.7898822,control,-0.04760365855985084,0.6212487913919204,0,,,
1714162130.8059115,control,-0.04669527149734697,0.6212487913919204,0,,,
1714162130.8220122,control,-0.045181463181728686,0.6212487913919204,0,,,
1714162130.8381073,control,-0.04326426838638698,0.6212487913919204,0,,,
1714162130.8542173,control,-0.04114563231139631,0.6212487913919204,0,,,
1714162130.8698392,control,-0.03872478428145214,0.6212487913919204,0,,,
1714162130.8969002,control,-0.03499352129310892,0.6212487913919204,0,,,
1714162130.911969,control,-0.033010639983633,0.6212487913919204,0,,,
1714162130.9285514,control,-0.031498447997667336,0.6212487913919204,0,,,
1714162130.9451582,control,-0.03028879834916742,0.6212487913919204,0,,,
1714162130.9606874,control,-0.02958321050884515,0.6212487913919204,0,,,
1714162130.9881752,control,-0.029012041939859828,0.6212487913919204,0,,,
1714162130.9931834,control,-0.029012041939859828,0.6212487913919204,0,,,
1714162131.0087838,control,-0.029012041939859828,0.6212487913919204,0,,,
1714162131.0377111,control,-0.029012041939859828,0.6212487913919204,0,,,
1714162131.043711,control,-0.029012041939859828,0.6212487913919204,0,,,
1714162131.0587509,control,-0.029012041939859828,0.6212487913919204,0,,,
1714162131.0752149,control,-0.029012041939859828,0.6212487913919204,0,,,
1714162131.0912454,control,-0.029012041939859828,0.6212487913919204,0,,,
1714162131.1185687,control,-0.029247226685936926,0.6212487913919204,0,,,
1714162131.1240788,control,-0.029415217767973532,0.6212487913919204,0,,,
1714162131.1492612,control,-0.030456799868972716,0.6212487913919204,0,,,
1714162131.15578,control,-0.030759206939556843,0.6212487913919204,0,,,
1714162131.170807,control,-0.03159925624327326,0.6212487913919204,0,,,
1714162131.1981537,control,-0.032540164416662805,0.6212487913919204,0,,,
1714162131.213165,control,-0.032842611330446705,0.6212487913919204,0,,,
1714162131.2398493,control,-0.032842611330446705,0.6250363555220111,0,,,
1714162131.2558548,control,-0.032842611330446705,0.6287945016040417,0,,,
1714162131.2709854,control,-0.032842611330446705,0.6287945016040417,0,,,
1714162131.288801,control,-0.03270818974216331,0.6325381093670247,0,,,
1714162131.3039856,control,-0.032506559572116726,0.6325381093670247,0,,,
1714162131.3198414,control,-0.0318680813738659,0.6362672908600797,0,,,
1714162131.3368635,control,-0.031128823219929932,0.6399821568419266,0,,,
1714162131.3523161,control,-0.030120798537550647,0.6473693789729349,0,,,
1714162131.368003,control,-0.029012041939859828,0.6510419503633152,0,,,
1714162131.3968453,control,-0.02649240131970863,0.6547006367625572,0,,,
1714162131.412366,control,-0.025115141912610522,0.6619767717918214,0,,,
1714162131.4284997,control,-0.023737977717854585,0.6655944260979495,0,,,
1714162131.4455657,control,-0.022495248396466428,0.6727894138880657,0,,,
1714162131.4722545,control,-0.021454096373311717,0.6940588722660791,0,,,
1714162131.4878433,control,-0.021151835238755967,0.7010460607425574,0,,,
1714162131.5139625,control,-0.021084666624315813,0.7079831614159194,0,,,
1714162131.519132,control,-0.021084666624315813,0.7079831614159194,0,,,
1714162131.5348427,control,-0.021084666624315813,0.7114331522353371,0,,,
1714162131.5514777,control,-0.021084666624315813,0.7114331522353371,0,,,
1714162131.5669756,control,-0.021084666624315813,0.7114331522353371,0,,,
1714162131.5942059,control,-0.021084666624315813,0.7114331522353371,0,,,
1714162131.6092257,control,-0.021084666624315813,0.7114331522353371,0,,,
1714162131.636959,control,-0.021017498200042704,0.7114331522353371,0,,,
1714162131.6419623,control,-0.0209503299653303,0.7114331522353371,0,,,
1714162131.656989,control,-0.02074882639249397,0.7045208271325776,0,,,
1714162131.68363,control,-0.019942828779636625,0.6975587726447999,0,,,
1714162131.6891403,control,-0.01970775106785281,0.6975587726447999,0,,,
1714162131.7048872,control,-0.01920402041239765,0.6975587726447999,0,,,
1714162131.732329,control,-0.01819658807192446,0.6940588722660791,0,,,
1714162131.7378438,control,-0.0178607855977951,0.6940588722660791,0,,,
1714162131.753031,control,-0.017155613418781343,0.6940588722660791,0,,,
1714162131.7802448,control,-0.015980364010543185,0.7045208271325776,0,,,
1714162131.7973337,control,-0.015275235756576785,0.7114331522353371,0,,,
1714162131.825902,control,-0.014536546242702453,0.7217099362473083,0,,,
1714162131.8409262,control,-0.01420078357341839,0.731878731038892,0,,,
1714162131.855982,control,-0.014032903443966004,0.7485928149134281,0,,,
1714162131.8723423,control,-0.013898599910263118,0.7650231145123714,0,,,
1714162131.8988428,control,-0.013898599910263118,0.7875667289663495,0,,,
1714162131.9140832,control,-0.013898599910263118,0.7939124658025385,0,,,
1714162131.9392726,control,-0.013898599910263118,0.8002168620402252,0,,,
1714162131.9447799,control,-0.013898599910263118,0.8002168620402252,0,,,
1714162131.9608626,control,-0.013898599910263118,0.8002168620402252,0,,,
1714162131.988064,control,-0.0138650241053535,0.8002168620402252,0,,,
1714162131.9930644,control,-0.0138650241053535,0.8002168620402252,0,,,
1714162132.0094745,control,-0.01373072119750794,0.8002168620402252,0,,,
1714162132.0255134,control,-0.013629994341886274,0.803353725078269,0,,,
1714162132.0409055,control,-0.013495692297520675,0.8219643255649756,0,,,
1714162132.0573976,control,-0.013227089664206557,0.8372043476161997,0,,,
1714162132.07312,control,-0.012992063926744755,0.855181113467795,0,,,
1714162132.0996778,control,-0.012689890083571057,0.8728300172221422,0,,,
1714162132.1051826,control,-0.012589165986796897,0.8786421752334822,0,,,
1714162132.1208594,control,-0.012320569638477915,0.8872954793884136,0,,,
1714162132.1368186,control,-0.012119123545796005,0.8958720915083908,0,,,
1714162132.1533356,control,-0.011951252553836124,0.9043733590638868,0,,,
1714162132.1801758,control,-0.011816956245635021,0.9099996621209874,0,,,
1714162132.1851761,control,-0.011816956245635021,0.9128005943220526,0,,,
1714162132.2120194,control,-0.011816956245635021,0.9128005943220526,0,,,
1714162132.2271647,control,-0.011816956245635021,0.9128005943220526,0,,,
1714162132.2432659,control,-0.011816956245635021,0.9155934430134648,0,,,
1714162132.260931,control,-0.011816956245635021,0.9155934430134648,0,,,
1714162132.2759578,control,-0.011816956245635021,0.9211550755624077,0,,,
1714162132.3031611,control,-0.011816956245635021,0.9239239512708277,0,,,
1714162132.3168519,control,-0.011816956245635021,0.9239239512708277,0,,,
1714162132.3328757,control,-0.011816956245635021,0.9239239512708277,0,,,
1714162132.348923,control,-0.011816956245635021,0.9239239512708277,0,,,
1714162132.377472,control,-0.011816956245635021,0.9239239512708277,0,,,
1714162132.3834727,control,-0.011816956245635021,0.9239239512708277,0,,,
1714162132.3988595,control,-0.011816956245635021,0.9239239512708277,0,,,
1714162132.426171,control,-0.011783382235365954,0.9211550755624077,0,,,
1714162132.44624,control,-0.011447643581044279,0.9183782547191166,0,,,
1714162132.4738705,control,-0.010776173937930643,0.9128005943220526,0,,,
1714162132.489885,control,-0.010037568529253325,0.9043733590638868,0,,,
1714162132.5050375,control,-0.009063968909287307,0.8987141534627355,0,,,
1714162132.5214016,control,-0.00785538618107237,0.8901628041524876,0,,,
1714162132.5485997,control,-0.005337575101848025,0.8872954793884136,0,,,
1714162132.5535996,control,-0.0046997416327510914,0.8844196335872573,0,,,
1714162132.5686255,control,-0.002954110155731828,0.8815352159528578,0,,,
1714162132.585148,control,-0.001074219163196973,0.8786421752334822,0,,,
1714162132.600909,control,0.0008392335954651351,0.8757404597163612,0,,,
1714162132.6175325,control,0.0028534012986847026,0.8757404597163612,0,,,
1714162132.6438797,control,0.005975412913838536,0.8728300172221422,0,,,
1714162132.6493883,control,0.0066803972258384975,0.8728300172221422,0,,,
1714162132.676536,control,0.00929897407105946,0.8728300172221422,0,,,
1714162132.692057,control,0.010675454344272741,0.8699107950992607,0,,,
1714162132.707079,control,0.0116490864591435,0.8699107950992607,0,,,
1714162132.723438,control,0.012421293058723222,0.8699107950992607,0,,,
1714162132.7400315,control,0.012924913980755215,0.8699107950992607,0,,,
1714162132.7561297,control,0.013394966083943943,0.8699107950992607,0,,,
1714162132.7729225,control,0.013596418784896666,0.8699107950992607,0,,,
1714162132.787553,control,0.013629994341886274,0.8699107950992607,0,,,
1714162132.8147948,control,0.013629994341886274,0.8669827402182236,0,,,
1714162132.835068,control,0.013629994341886274,0.8669827402182236,0,,,
1714162132.8626058,control,0.013629994341886274,0.8669827402182236,0,,,
1714162132.8791478,control,0.013629994341886274,0.8640457989658082,0,,,
1714162132.9053688,control,0.013629994341886274,0.8610999172391722,0,,,
1714162132.9113731,control,0.013629994341886274,0.8610999172391722,0,,,
1714162132.9271696,control,0.013629994341886274,0.855181113467795,0,,,
1714162132.9538267,control,0.013629994341886274,0.8492258860594036,0,,,
1714162132.9711056,control,0.013629994341886274,0.8462344728585406,0,,,
1714162132.9980497,control,0.013629994341886274,0.8462344728585406,0,,,
1714162133.0034513,control,0.013629994341886274,0.8462344728585406,0,,,
1714162133.0196598,control,0.013629994341886274,0.8462344728585406,0,,,
1714162133.0352037,control,0.013629994341886274,0.8462344728585406,0,,,
1714162133.063114,control,0.013629994341886274,0.8462344728585406,0,,,
1714162133.0686197,control,0.013629994341886274,0.8462344728585406,0,,,
1714162133.0841274,control,0.013596418784896666,0.8462344728585406,0,,,
1714162133.1000028,control,0.013596418784896666,0.8522080807149879,0,,,
1714162133.1262383,control,0.013059213989880152,0.8522080807149879,0,,,
1714162133.132239,control,0.012891339051500868,0.8522080807149879,0,,,
1714162133.1481035,control,0.012253420830635497,0.8581450404398726,0,,,
1714162133.1632907,control,0.01151479110305355,0.8581450404398726,0,,,
1714162133.1803236,control,0.01047401580461661,0.8581450404398726,0,,,
1714162133.2069836,control,0.008358959326571483,0.8581450404398726,0,,,
1714162133.2119906,control,0.007754672038196064,0.8581450404398726,0,,,
1714162133.2278748,control,0.0061768363662808344,0.8581450404398726,0,,,
1714162133.2433136,control,0.004431181346033966,0.8581450404398726,0,,,
1714162133.2709303,control,0.0014770518554011664,0.8610999172391722,0,,,
1714162133.2873619,control,0.00013427734455702498,0.8610999172391722,0,,,
1714162133.3039758,control,-0.0005706787728892841,0.8610999172391722,0,,,
1714162133.3195014,control,-0.0008728029560042987,0.8610999172391722,0,,,
1714162133.3363056,control,-0.0011077885390948503,0.8610999172391722,0,,,
1714162133.351912,control,-0.001242066068410325,0.8610999172391722,0,,,
1714162133.3794298,control,-0.0014434824478779282,0.8610999172391722,0,,,
1714162133.3948078,control,-0.001577760098247444,0.8610999172391722,0,,,
1714162133.410327,control,-0.0018127461262116592,0.8610999172391722,0,,,
1714162133.4255939,control,-0.0021484408055803617,0.8610999172391722,0,,,
1714162133.4431837,control,-0.002685553331218348,0.8610999172391722,0,,,
1714162133.4592047,control,-0.0033233764931090057,0.8610999172391722,0,,,
1714162133.476932,control,-0.004061911987552971,0.8610999172391722,0,,,
1714162133.492024,control,-0.004934732438411475,0.8610999172391722,0,,,
1714162133.519762,control,-0.006579684791074298,0.8610999172391722,0,,,
1714162133.5237975,control,-0.0067811097961152965,0.8610999172391722,0,,,
1714162133.539824,control,-0.007821814782508936,0.8610999172391722,0,,,
1714162133.5669532,control,-0.009198257448911722,0.8610999172391722,0,,,
1714162133.583469,control,-0.009735414973094575,0.8640457989658082,0,,,
1714162133.6100001,control,-0.010037568529253325,0.8640457989658082,0,,,
1714162133.6261113,control,-0.010037568529253325,0.8640457989658082,0,,,
1714162133.641372,control,-0.010037568529253325,0.8640457989658082,0,,,
1714162133.6569269,control,-0.010037568529253325,0.8640457989658082,0,,,
1714162133.6730216,control,-0.010037568529253325,0.8640457989658082,0,,,
1714162133.7002475,control,-0.010037568529253325,0.8640457989658082,0,,,
1714162133.7052474,control,-0.010037568529253325,0.8640457989658082,0,,,
1714162133.7208843,control,-0.010037568529253325,0.8640457989658082,0,,,
1714162133.7369473,control,-0.010037568529253325,0.8640457989658082,0,,,
1714162133.7550578,control,-0.010037568529253325,0.8581450404398726,0,,,
1714162133.7700772,control,-0.010037568529253325,0.8581450404398726,0,,,
1714162133.7973962,control,-0.010037568529253325,0.8581450404398726,0,,,
1714162133.8023968,control,-0.010037568529253325,0.8581450404398726,0,,,
1714162133.818426,control,-0.010037568529253325,0.8581450404398726,0,,,
1714162133.8339748,control,-0.010037568529253325,0.8581450404398726,0,,,
1714162133.8502438,control,-0.010037568529253325,0.8581450404398726,0,,,
1714162133.8657744,control,-0.010037568529253325,0.8581450404398726,0,,,
1714162133.8833032,control,-0.010037568529253325,0.8581450404398726,0,,,
1714162133.8988793,control,-0.010037568529253325,0.8581450404398726,0,,,
1714162133.9147928,control,-0.010037568529253325,0.8581450404398726,0,,,
1714162133.9413538,control,-0.010037568529253325,0.8581450404398726,0,,,
1714162133.954869,control,-0.010037568529253325,0.8581450404398726,0,,,
1714162133.9820507,control,-0.010037568529253325,0.8581450404398726,0,,,
1714162133.99826,control,-0.010037568529253325,0.8581450404398726,0,,,
1714162134.0137775,control,-0.009903277836879698,0.8581450404398726,0,,,
1714162134.0318942,control,-0.009903277836879698,0.8581450404398726,0,,,
1714162134.060734,button_press,,,,,,Traingle
1714162134.060734,control,-0.009869705219781021,0.8581450404398726,0,,,
1714162134.0652416,control,-0.009869705219781021,0.8581450404398726,0,,,
1714162134.0810971,control,-0.009869705219781021,0.8581450404398726,0,,,
1714162134.0968115,control,-0.009735414973094575,0.8581450404398726,0,,,
1714162134.123485,control,-0.009735414973094575,0.8581450404398726,0,,,
1714162134.130002,control,-0.009735414973094575,0.8581450404398726,0,,,
1714162134.1452565,control,-0.009735414973094575,0.8581450404398726,0,,,
1714162134.1723497,control,-0.009735414973094575,0.8581450404398726,0,,,
1714162134.178858,control,-0.009735414973094575,0.8581450404398726,0,,,
1714162134.1933708,control,-0.009735414973094575,0.8581450404398726,0,,,
1714162134.2210388,control,-0.009735414973094575,0.8581450404398726,0,,,
1714162134.235808,control,-0.009735414973094575,0.8581450404398726,0,,,
1714162134.2657833,control,-0.009735414973094575,0.8581450404398726,0,,,
1714162134.2809882,control,-0.009735414973094575,0.8581450404398726,0,,,
1714162134.3074644,control,-0.009735414973094575,0.8581450404398726,0,,,
1714162134.3138762,control,-0.009735414973094575,0.8581450404398726,0,,,
1714162134.3290553,control,-0.009735414973094575,0.8581450404398726,0,,,
1714162134.3453283,control,-0.009735414973094575,0.8581450404398726,0,,,
1714162134.3609889,control,-0.009735414973094575,0.8581450404398726,0,,,
1714162134.3880637,control,-0.009735414973094575,0.8581450404398726,0,,,
1714162134.3948462,control,-0.009735414973094575,0.8581450404398726,0,,,
1714162134.4103837,control,-0.009735414973094575,0.8581450404398726,0,,,
1714162134.4270637,control,-0.009735414973094575,0.8581450404398726,0,,,
1714162134.443216,control,-0.009735414973094575,0.8581450404398726,0,,,
1714162134.45924,control,-0.009735414973094575,0.8610999172391722,0,,,
1714162134.4869552,control,-0.009735414973094575,0.8640457989658082,0,,,
1714162134.5024762,control,-0.009735414973094575,0.8640457989658082,0,,,
1714162134.5181308,control,-0.009869705219781021,0.8640457989658082,0,,,
1714162134.5348198,control,-0.01023900524807629,0.8640457989658082,0,,,
1714162134.5499208,control,-0.010776173937930643,0.8640457989658082,0,,,
1714162134.5775762,control,-0.012589165986796897,0.8640457989658082,0,,,
1714162134.5815763,control,-0.012824189280094475,0.8640457989658082,0,,,
1714162134.5982916,control,-0.0138650241053535,0.8640457989658082,0,,,
1714162134.613409,control,-0.0147044288014644,0.8669827402182236,0,,,
1714162134.62994,control,-0.01530881294257266,0.8669827402182236,0,,,
1714162134.6459613,control,-0.015745319528594908,0.8669827402182236,0,,,
1714162134.6728995,control,-0.015879630446496974,0.8669827402182236,0,,,
1714162134.6780195,control,-0.015879630446496974,0.8669827402182236,0,,,
1714162134.6940548,control,-0.015879630446496974,0.8669827402182236,0,,,
1714162134.7206817,control,-0.015879630446496974,0.8699107950992607,0,,,
1714162134.7379584,control,-0.015879630446496974,0.8728300172221422,0,,,
1714162134.7534616,control,-0.015946786119936343,0.8757404597163612,0,,,
1714162134.7690196,control,-0.016248988438686867,0.8786421752334822,0,,,
1714162134.7851737,control,-0.016786244367030103,0.8786421752334822,0,,,
1714162134.8009572,control,-0.017457827937482767,0.8815352159528578,0,,,
1714162134.817824,control,-0.018364490842694096,0.8815352159528578,0,,,
1714162134.8332086,control,-0.019338347624072258,0.8815352159528578,0,,,
1714162134.8600686,control,-0.021017498200042704,0.8815352159528578,0,,,
1714162134.8751476,control,-0.02212580189293572,0.8815352159528578,0,,,
1714162134.9021733,control,-0.0240402741628487,0.8815352159528578,0,,,
1714162134.907684,control,-0.024409753564643737,0.8815352159528578,0,,,
1714162134.9229178,control,-0.02561900598449338,0.8815352159528578,0,,,
1714162134.9389389,control,-0.026794739817198227,0.8815352159528578,0,,,
1714162134.9550505,control,-0.027869761167519366,0.8815352159528578,0,,,
1714162134.982411,control,-0.029448816183137373,0.8815352159528578,0,,,
1714162134.9970884,control,-0.030524000957313873,0.8815352159528578,0,,,
1714162135.0237534,control,-0.032540164416662805,0.8815352159528578,0,,,
1714162135.031271,control,-0.032943428299448976,0.8815352159528578,0,,,
1714162135.0581672,control,-0.033951635120624664,0.8815352159528578,0,,,
1714162135.0631661,control,-0.03425411051838716,0.8815352159528578,0,,,
1714162135.0788207,control,-0.03479186005283334,0.8786421752334822,0,,,
1714162135.0950835,control,-0.035296018488791915,0.8757404597163612,0,,,
1714162135.121856,control,-0.03583380724646163,0.8757404597163612,0,,,
1714162135.1270263,control,-0.03583380724646163,0.8757404597163612,0,,,
1714162135.143304,control,-0.036136322500110306,0.8757404597163612,0,,,
1714162135.169945,control,-0.037480915428214585,0.8757404597163612,0,,,
1714162135.1850183,control,-0.038758404001982265,0.8757404597163612,0,,,
1714162135.2112489,control,-0.04050675180707854,0.8757404597163612,0,,,
1714162135.226982,control,-0.04168366293478263,0.8757404597163612,0,,,
1714162135.2421088,control,-0.04259164440472725,0.8757404597163612,0,,,
1714162135.2582855,control,-0.043230636264302964,0.8757404597163612,0,,,
1714162135.2851784,control,-0.043230636264302964,0.8757404597163612,0,,,
1714162135.3003588,control,-0.043230636264302964,0.8757404597163612,0,,,
1714162135.3153794,control,-0.043230636264302964,0.8757404597163612,0,,,
1714162135.3310065,control,-0.043230636264302964,0.8757404597163612,0,,,
1714162135.3472133,control,-0.043230636264302964,0.8757404597163612,0,,,
1714162135.363307,control,-0.04343243046370485,0.8757404597163612,0,,,
1714162135.3791597,control,-0.04430691300411568,0.8757404597163612,0,,,
1714162135.407703,control,-0.04719992138792579,0.8757404597163612,0,,,
1714162135.4229958,control,-0.04928606495042266,0.8757404597163612,0,,,
1714162135.4390218,control,-0.05140629453504128,0.8757404597163612,0,,,
1714162135.4590497,control,-0.054200319816194865,0.8757404597163612,0,,,
1714162135.4734275,control,-0.056624734664029445,0.8728300172221422,0,,,
1714162135.5020142,control,-0.061071239667672736,0.8728300172221422,0,,,
1714162135.5188127,control,-0.06346390476629067,0.8699107950992607,0,,,
1714162135.5338302,control,-0.06595843927921259,0.8699107950992607,0,,,
1714162135.5501366,control,-0.0682177087024257,0.8699107950992607,0,,,
1714162135.5772245,control,-0.07216467658013875,0.8640457989658082,0,,,
1714162135.59174,control,-0.0739533484068893,0.8640457989658082,0,,,
1714162135.6066375,control,-0.0760125918546099,0.8610999172391722,0,,,
1714162135.6226602,control,-0.07797115540059465,0.855181113467795,0,,,
1714162135.6502004,control,-0.08091012061508907,0.8462344728585406,0,,,
1714162135.655201,control,-0.0815859393451806,0.8462344728585406,0,,,
1714162135.6714306,control,-0.08334341610680411,0.8432337839429888,0,,,
1714162135.6990492,control,-0.0864878781772889,0.8402237616098741,0,,,
1714162135.7040489,control,-0.08696138361453995,0.8402237616098741,0,,,
1714162135.7199228,control,-0.08885579455605357,0.8372043476161997,0,,,
1714162135.7359774,control,-0.09064930200049919,0.8341754831720845,0,,,
1714162135.7520459,control,-0.09284967775308518,0.815800474153604,0,,,
1714162135.768402,control,-0.09494932837370572,0.8002168620402252,0,,,
1714162135.7842624,control,-0.09725312607950842,0.7811791057752773,0,,,
1714162135.7997963,control,-0.09965965412972495,0.7584844315286202,0,,,
1714162135.8273056,control,-0.10389929550139936,0.7285009914843854,0,,,
1714162135.8418148,control,-0.1059695737249303,0.7217099362473083,0,,,
1714162135.8676448,control,-0.10984104135380376,0.7148708872888985,0,,,
1714162135.8726478,control,-0.11072445941784649,0.7114331522353371,0,,,
1714162135.8895915,control,-0.11300175020404997,0.7079831614159194,0,,,
1714162135.9051037,control,-0.11541626279979107,0.6905462680468858,0,,,
1714162135.9207437,control,-0.11786613972045606,0.6583455427660694,0,,,
1714162135.948284,control,-0.12188424881514547,0.5820735872329712,0,,,
1714162135.9532893,control,-0.12273603700083804,0.5618590664357805,0,,,
1714162135.9717386,control,-0.12522426748474805,0.4630763094034289,0,,,
1714162135.9867575,control,-0.12747521456084368,0.40724416412853137,0,,,
1714162136.003269,control,-0.12945436872969715,0.3581037903641062,0,,,
1714162136.0192993,control,-0.13153696994310407,0.3377349040157591,0,,,
1714162136.0348294,control,-0.13351818864763162,0.32738739779694637,0,,,
1714162136.0507104,control,-0.13529532921468815,0.3377349040157591,0,,,
1714162136.0673032,control,-0.13714171017968171,0.34797293749399727,0,,,
1714162136.0828173,control,-0.13892057439050853,0.3581037903641062,0,,,
1714162136.1103072,control,-0.14121384639674212,0.3581037903641062,0,,,
1714162136.1153047,control,-0.14176170806450103,0.3581037903641062,0,,,
1714162136.13144,control,-0.14302895830107026,0.3581037903641062,0,,,
1714162136.1473033,control,-0.14419385546662258,0.3581037903641062,0,,,
1714162136.1634307,control,-0.1451191938942475,0.3581037903641062,0,,,
1714162136.1899633,control,-0.1461476333069424,0.34797293749399727,0,,,
1714162136.1949613,control,-0.14631906925280386,0.34797293749399727,0,,,
1714162136.2115986,control,-0.14683342765665072,0.34797293749399727,0,,,
1714162136.2273054,control,-0.14707348759280497,0.34797293749399727,0,,,
1714162136.242819,control,-0.14738216046848873,0.34797293749399727,0,,,
1714162136.27044,control,-0.14775946465496398,0.34797293749399727,0,,,
1714162136.2749457,control,-0.14793098016296474,0.34797293749399727,0,,,
1714162136.291125,control,-0.1481025041885425,0.3581037903641062,0,,,
1714162136.306652,control,-0.1484112689317545,0.3581037903641062,0,,,
1714162136.3226638,control,-0.14847988707744456,0.3631297208009001,0,,,
1714162136.3393052,control,-0.14861712747374492,0.3731039454650429,0,,,
1714162136.3554776,control,-0.14861712747374492,0.3731039454650429,0,,,
1714162136.3815155,control,-0.14861712747374492,0.3780527695141902,0,,,
1714162136.3870256,control,-0.14861712747374492,0.3780527695141902,0,,,
1714162136.403307,control,-0.14847988707744456,0.3878751353819707,0,,,
1714162136.4189246,control,-0.14806819870152646,0.3927491831883587,0,,,
1714162136.434937,control,-0.14721067214754305,0.3927491831883587,0,,,
1714162136.4625676,control,-0.14460508703727554,0.39761741078017865,0,,,
1714162136.4670794,control,-0.1438511989886343,0.39761741078017865,0,,,
1714162136.4933949,control,-0.1392627622418675,0.4024427580997696,0,,,
1714162136.4989045,control,-0.13789420199525523,0.4024427580997696,0,,,
1714162136.5260887,control,-0.13027362008237542,0.3927491831883587,0,,,
1714162136.5310884,control,-0.1280893289742974,0.3927491831883587,0,,,
1714162136.5599928,control,-0.11728757175105987,0.3878751353819707,0,,,
1714162136.5639946,control,-0.11558634864715717,0.3878751353819707,0,,,
1714162136.5788822,control,-0.10861812642638864,0.3878751353819707,0,,,
1714162136.594898,control,-0.10142290557097142,0.3878751353819707,0,,,
1714162136.6113079,control,-0.09430579971307661,0.3829764145132353,0,,,
1714162136.6274922,control,-0.08767171440963563,0.3780527695141902,0,,,
1714162136.643035,control,-0.08121422992079194,0.3780527695141902,0,,,
1714162136.659301,control,-0.07486473885403361,0.3780527695141902,0,,,
1714162136.6753252,control,-0.0685886991814217,0.3780527695141902,0,,,
1714162136.6913562,control,-0.06262133589328835,0.3731039454650429,0,,,
1714162136.7073808,control,-0.05675944357441856,0.3731039454650429,0,,,
1714162136.7234066,control,-0.050733156736171986,0.3731039454650429,0,,,
1714162136.7393277,control,-0.045484208092259226,0.3731039454650429,0,,,
1714162136.7551446,control,-0.038623925644010244,0.3731039454650429,0,,,
1714162136.7713249,control,-0.033010639983633,0.3731039454650429,0,,,
1714162136.7869978,control,-0.028541682041700406,0.3731039454650429,0,,,
1714162136.8026383,control,-0.025115141912610522,0.3631297208009001,0,,,
1714162136.8186665,control,-0.022495248396466428,0.3581037903641062,0,,,
1714162136.8458133,control,-0.01943909349037435,0.3581037903641062,0,,,
1714162136.8508182,control,-0.01903611237144103,0.3581037903641062,0,,,
1714162136.8778088,control,-0.01752498715041518,0.34797293749399727,0,,,
1714162136.8831146,control,-0.01732350998331341,0.34797293749399727,0,,,
1714162136.9100063,control,-0.016484036735148856,0.3377349040157591,0,,,
1714162136.915006,control,-0.016282566656252002,0.32217185588316455,0,,,
1714162136.942663,control,-0.015073773361093779,0.23463540773444125,0,,,
1714162136.947173,control,-0.01457012268861315,0.21730699790394592,0,,,
1714162136.9739401,control,-0.012119123545796005,0.12565593800669816,0,,,
1714162136.9794657,control,-0.011414069858783625,0.11922751467497528,0,,,
1714162137.006364,control,-0.007620386758707335,0.059365196501131035,0,,,
1714162137.0113654,control,-0.006579684791074298,0.052479355626510404,0,,,
1714162137.026887,control,-0.0035247948708893497,0.04554416707003428,0,,,
1714162137.0438385,control,-0.00023498535588764956,0.06620238700686021,0,,,
1714162137.0604746,control,0.003088388725360216,0.08642881173187633,0,,,
1714162137.0873773,control,0.008728248979734673,0.11922751467497528,0,,,
1714162137.0923786,control,0.009433263194380818,0.11922751467497528,0,,,
1714162137.1194274,control,0.013294240142122212,0.132041939961842,0,,,
1714162137.123936,control,0.013629994341886274,0.132041939961842,0,,,
1714162137.1503007,control,0.01457012268861315,0.13838607675206616,0,,,
1714162137.1558046,control,0.01457012268861315,0.13838607675206616,0,,,
1714162137.1828568,control,0.013059213989880152,0.13838607675206616,0,,,
1714162137.1880872,control,0.012354144084019754,0.13838607675206616,0,,,
1714162137.2041876,control,0.009869705219781021,0.13838607675206616,0,,,
1714162137.2203882,control,0.006546114009247007,0.1446888937210118,0,,,
1714162137.2359307,control,0.002349857840783977,0.1571726969083409,0,,,
1714162137.2523043,control,-0.0027862620929346377,0.16952105635545944,0,,,
1714162137.267947,control,-0.008661105232324755,0.18169057485634932,0,,,
1714162137.284896,control,-0.014738005412357947,0.19370895502001195,0,,,
1714162137.3000457,control,-0.02027865791065446,0.20557990494151435,0,,,
1714162137.31615,control,-0.025115141912610522,0.21146121529928097,0,,,
1714162137.332182,control,-0.029045639563793482,0.21730699790394592,0,,,
1714162137.3613145,control,-0.03425411051838716,0.21730699790394592,0,,,
1714162137.3653142,control,-0.035094352978247804,0.21730699790394592,0,,,
1714162137.3813078,control,-0.03687583215233475,0.21730699790394592,0,,,
1714162137.3973298,control,-0.037917937036327946,0.21730699790394592,0,,,
1714162137.4133022,control,-0.03822049891993773,0.21730699790394592,0,,,
1714162137.4289298,control,-0.03822049891993773,0.21146121529928097,0,,,
1714162137.4455612,control,-0.037917937036327946,0.20557990494151435,0,,,
1714162137.4610777,control,-0.03754814858706071,0.20557990494151435,0,,,
1714162137.476988,control,-0.03687583215233475,0.20557990494151435,0,,,
1714162137.4931445,control,-0.036169935712809326,0.20557990494151435,0,,,
1714162137.5203023,control,-0.03479186005283334,0.20557990494151435,0,,,
1714162137.5253093,control,-0.034422155107724006,0.20557990494151435,0,,,
1714162137.5530996,control,-0.033380309588299066,0.16952105635545944,0,,,
1714162137.5571287,control,-0.033245883228401524,0.16952105635545944,0,,,
1714162137.5838113,control,-0.033212276826148156,0.12565593800669816,0,,,
1714162137.5893197,control,-0.033212276826148156,0.11275610259628221,0,,,
1714162137.614896,control,-0.033245883228401524,0.017267888969123124,0,,,
1714162137.621233,control,-0.033380309588299066,0.0028277482171481516,0,,,
1714162137.637563,control,-0.033716380770829994,0,0,,,
1714162137.6530724,control,-0.03411967623863915,0,0,,,
1714162137.6692982,control,-0.03479186005283334,0,0,,,
1714162137.6849663,control,-0.035598522136068046,0,0,,,
1714162137.7111943,control,-0.03704390811635083,0,0,,,
1714162137.7166963,control,-0.03754814858706071,0,0,,,
1714162137.733305,control,-0.038523067791192786,0,0,,,
1714162137.749344,control,-0.039296331480175584,0,0,,,
1714162137.7649102,control,-0.04000239580566693,0,0,,,
1714162137.7809513,control,-0.04050675180707854,0,0,,,
1714162137.7975497,control,-0.040809375267422426,0,0,,,
1714162137.8241124,control,-0.04084300055598091,0,0,,,
1714162137.8286252,control,-0.04084300055598091,0,0,,,
1714162137.8561633,control,-0.04084300055598091,0,0,,,
1714162137.861292,control,-0.04084300055598091,0,0,,,
1714162137.8763068,control,-0.04084300055598091,0,0,,,
1714162137.893306,control,-0.04084300055598091,0,0,,,
1714162137.909325,control,-0.04084300055598091,0,0,,,
1714162137.9249942,control,-0.04084300055598091,0,0,,,
1714162137.9411025,control,-0.04084300055598091,0,0,,,
1714162137.956917,control,-0.04084300055598091,0,0,,,
1714162137.9729981,control,-0.04084300055598091,0,0,,,
1714162137.9999845,control,-0.04084300055598091,0,0,,,
1714162138.004986,control,-0.04084300055598091,0,0,,,
1714162138.032317,control,-0.04104475422631385,0,0,,,
1714162138.0368266,control,-0.04114563231139631,0,0,,,
1714162138.0534441,control,-0.04138101776466347,0.0028277482171481516,0,,,
1714162138.069448,control,-0.04168366293478263,0.0028277482171481516,0,,,
1714162138.0852804,control,-0.04205357294482727,0.0028277482171481516,0,,,
1714162138.101301,control,-0.04259164440472725,0.0028277482171481516,0,,,
1714162138.1173346,control,-0.043230636264302964,0.0028277482171481516,0,,,
1714162138.1333554,control,-0.04393693144467948,0.0028277482171481516,0,,,
1714162138.1489484,control,-0.0446096341894828,0.0028277482171481516,0,,,
1714162138.1652987,control,-0.04531601545161353,0.0028277482171481516,0,,,
1714162138.1808465,control,-0.04588788092585614,0.0028277482171481516,0,,,
1714162138.1968675,control,-0.04652706015343999,0.010074752446523894,0,,,
1714162138.2249365,control,-0.04723356556404437,0.010074752446523894,0,,,
1714162138.2289453,control,-0.047435432863971026,0.010074752446523894,0,,,
1714162138.2563298,control,-0.048276588321879754,0.024407952688081158,0,,,
1714162138.2613282,control,-0.04844482755473649,0.03152288171889883,0,,,
1714162138.2887335,control,-0.04928606495042266,0.04554416707003428,0,,,
1714162138.2937336,control,-0.049319715885865985,0.052479355626510404,0,,,
1714162138.319596,control,-0.04935336693273649,0.07973353318972798,0,,,
1714162138.3250992,control,-0.04935336693273649,0.08642881173187633,0,,,
1714162138.341163,control,-0.04935336693273649,0.09968198510957893,0,,,
1714162138.3568094,control,-0.04935336693273649,0.11275610259628221,0,,,
1714162138.3730412,control,-0.04935336693273649,0.12565593800669816,0,,,
1714162138.3998835,control,-0.04935336693273649,0.132041939961842,0,,,
1714162138.405388,control,-0.04935336693273649,0.132041939961842,0,,,
1714162138.4329355,control,-0.04935336693273649,0.15095092562560875,0,,,
1714162138.4374456,control,-0.04935336693273649,0.15095092562560875,0,,,
1714162138.4529572,control,-0.04928606495042266,0.16335472196081402,0,,,
1714162138.469094,control,-0.048915911992892164,0.16952105635545944,0,,,
1714162138.4851787,control,-0.048276588321879754,0.18169057485634932,0,,,
1714162138.5007424,control,-0.04736814333620749,0.199662632348784,0,,,
1714162138.5167618,control,-0.04598880146100352,0.21146121529928097,0,,,
1714162138.533338,control,-0.04410510338644342,0.21730699790394592,0,,,
1714162138.5493445,control,-0.04205357294482727,0.21730699790394592,0,,,
1714162138.5768673,control,-0.0389265039184293,0.22311767941076277,0,,,
1714162138.5808716,control,-0.03838859187107796,0.22889367883523715,0,,,
1714162138.6103055,control,-0.03670775826891346,0.24034327038298509,0,,,
1714162138.6133046,control,-0.036539686456578374,0.24034327038298509,0,,,
1714162138.6402986,control,-0.03630438938063072,0.2628438985038368,0,,,
1714162138.645296,control,-0.03630438938063072,0.27390101881707407,0,,,
1714162138.6712341,control,-0.03630438938063072,0.3010239674011399,0,,,
1714162138.6767435,control,-0.03630438938063072,0.3063544237406597,0,,,
1714162138.693259,control,-0.03630438938063072,0.32217185588316455,0,,,
1714162138.7092795,control,-0.03630438938063072,0.34286745988410106,0,,,
1714162138.7252948,control,-0.036169935712809326,0.34797293749399727,0,,,
1714162138.7412543,control,-0.03583380724646163,0.3581037903641062,0,,,
1714162138.756952,control,-0.03495991088942733,0.3631297208009001,0,,,
1714162138.7842672,control,-0.032405745478218874,0.3631297208009001,0,,,
1714162138.788776,control,-0.03166646209666496,0.36812968351497566,0,,,
1714162138.816325,control,-0.027701784901546476,0.3731039454650429,0,,,
1714162138.821328,control,-0.026660366550601604,0.3731039454650429,0,,,
1714162138.8483856,control,-0.021857117324251624,0.3829764145132353,0,,,
1714162138.8533802,control,-0.02074882639249397,0.3878751353819707,0,,,
1714162138.8693683,control,-0.0178607855977951,0.3927491831883587,0,,,
1714162138.885219,control,-0.014905888966696276,0.4024427580997696,0,,,
1714162138.9012966,control,-0.011984826698046116,0.4167760944304628,0,,,
1714162138.928018,control,-0.007620386758707335,0.4262150514850285,0,,,
1714162138.9330187,control,-0.006613255587731529,0.43556283148517627,0,,,
1714162138.9603386,control,-0.0024841359691670593,0.44020307724909813,0,,,
1714162138.9653378,control,-0.001577760098247444,0.44020307724909813,0,,,
1714162138.9923022,control,0.002349857840783977,0.44941734729060534,0,,,
1714162138.996811,control,0.003256237094578439,0.44941734729060534,0,,,
1714162139.0133235,control,0.0054718563681688355,0.45399178927524453,0,,,
1714162139.0289538,control,0.007586815481963918,0.4585447094584232,0,,,
1714162139.0452344,control,0.009433263194380818,0.4675867878551181,0,,,
1714162139.074096,control,0.012186272133276737,0.48099344051233106,0,,,
1714162139.0783033,control,0.012454867588036258,0.4854213658761737,0,,,
1714162139.0934803,control,0.013495692297520675,0.49860162338794534,0,,,
1714162139.1093013,control,0.014167207483806413,0.5072787020410159,0,,,
1714162139.1249425,control,0.014435817101283874,0.5158786685404688,0,,,
1714162139.1414661,control,0.014435817101283874,0.5244028813951171,0,,,
1714162139.1570373,control,0.014435817101283874,0.5328526635271087,0,,,
1714162139.1838012,control,0.014301512034630343,0.5536598593076767,0,,,
1714162139.1886759,control,0.014100055400316145,0.5536598593076767,0,,,
1714162139.205193,control,0.013932175746503461,0.5577681465172044,0,,,
1714162139.2208347,control,0.01373072119750794,0.5659327652817765,0,,,
1714162139.237383,control,0.013629994341886274,0.5740290754661139,0,,,
1714162139.2533836,control,0.013629994341886274,0.5780519701692741,0,,,
1714162139.2694113,control,0.013764296877851828,0.5860632474304233,0,,,
1714162139.2849245,control,0.013965751614150243,0.5939935593690986,0,,,
1714162139.3006601,control,0.014100055400316145,0.6096618436644565,0,,,
1714162139.3280838,control,0.014100055400316145,0.6212635577612914,0,,,
1714162139.3330846,control,0.014100055400316145,0.6212635577612914,0,,,
1714162139.360569,control,0.014100055400316145,0.6436828168006246,0,,,
1714162139.3650715,control,0.014100055400316145,0.6473693789729349,0,,,
1714162139.3812945,control,0.014100055400316145,0.6583455427660694,0,,,
1714162139.3971882,control,0.014100055400316145,0.6691986068000356,0,,,
1714162139.4131367,control,0.014100055400316145,0.6763669462430741,0,,,
1714162139.4407482,control,0.014100055400316145,0.7010460607425574,0,,,
1714162139.4452512,control,0.014100055400316145,0.7045208271325776,0,,,
1714162139.4723122,control,0.014100055400316145,0.7114331522353371,0,,,
1714162139.4774876,control,0.014100055400316145,0.7148708872888985,0,,,
1714162139.4930003,control,0.014100055400316145,0.7148708872888985,0,,,
1714162139.5092957,control,0.014100055400316145,0.7148708872888985,0,,,
1714162139.5374923,control,0.013965751614150243,0.7148708872888985,0,,,
1714162139.5424926,control,0.013965751614150243,0.7148708872888985,0,,,
1714162139.558058,control,0.013764296877851828,0.7148708872888985,0,,,
1714162139.5742893,control,0.01346211686267391,0.7148708872888985,0,,,
1714162139.590313,control,0.013059213989880152,0.7148708872888985,0,,,
1714162139.6174655,control,0.011884104346159203,0.7114331522353371,0,,,
1714162139.6224654,control,0.011716234294435366,0.7114331522353371,0,,,
1714162139.6489952,control,0.010809747184296021,0.7114331522353371,0,,,
1714162139.6539927,control,0.009634697518754171,0.7114331522353371,0,,,
1714162139.6699553,control,0.008358959326571483,0.7114331522353371,0,,,
1714162139.6859782,control,0.006881822503947847,0.7114331522353371,0,,,
1714162139.702496,control,0.0054718563681688355,0.7079831614159194,0,,,
1714162139.718303,control,0.003927632500775805,0.7079831614159194,0,,,
1714162139.7343419,control,0.0023834273647463863,0.7079831614159194,0,,,
1714162139.7503214,control,0.0008392335954651351,0.7079831614159194,0,,,
1714162139.766339,control,-0.0007049561714665577,0.7079831614159194,0,,,
1714162139.7934203,control,-0.003189097725403821,0.7079831614159194,0,,,
1714162139.7979298,control,-0.0035247948708893497,0.7079831614159194,0,,,
1714162139.825053,control,-0.00560613783181513,0.7079831614159194,0,,,
1714162139.830299,control,-0.005908271871574542,0.7079831614159194,0,,,
1714162139.8458962,control,-0.0067811097961152965,0.7079831614159194,0,,,
1714162139.862201,control,-0.007486101754031886,0.7079831614159194,0,,,
1714162139.8779178,control,-0.008023243440986583,0.7079831614159194,0,,,
1714162139.8938959,control,-0.008459674456198057,0.7079831614159194,0,,,
1714162139.9101837,control,-0.00862753338794044,0.7079831614159194,0,,,
1714162139.925808,control,-0.00862753338794044,0.7114331522353371,0,,,
1714162139.9423358,control,-0.00862753338794044,0.7114331522353371,0,,,
1714162139.969552,control,-0.00862753338794044,0.7114331522353371,0,,,
1714162139.9736164,control,-0.00862753338794044,0.7114331522353371,0,,,
1714162140.000412,control,-0.00862753338794044,0.7148708872888985,0,,,
1714162140.005919,control,-0.00862753338794044,0.7148708872888985,0,,,
1714162140.0224361,control,-0.00862753338794044,0.7148708872888985,0,,,
1714162140.0380554,control,-0.00862753338794044,0.7182964533433602,0,,,
1714162140.0536962,control,-0.00862753338794044,0.7182964533433602,0,,,
1714162140.069814,control,-0.00862753338794044,0.7182964533433602,0,,,
1714162140.0973535,control,-0.00862753338794044,0.7182964533433602,0,,,
1714162140.1023529,control,-0.00862753338794044,0.7182964533433602,0,,,
1714162140.1178124,control,-0.008661105232324755,0.7217099362473083,0,,,
1714162140.1341207,control,-0.008661105232324755,0.7285009914843854,0,,,
1714162140.1610076,control,-0.008828964748587995,0.7452730126871808,0,,,
1714162140.166524,control,-0.008862536711238747,0.7485928149134281,0,,,
1714162140.192159,control,-0.009063968909287307,0.7715179133871491,0,,,
1714162140.1976779,control,-0.009198257448911722,0.7747490395939178,0,,,
1714162140.2141855,control,-0.009500407883314273,0.7779694132809515,0,,,
1714162140.2298121,control,-0.010071141258719904,0.7875667289663495,0,,,
1714162140.2458248,control,-0.011078334038748406,0.7939124658025385,0,,,
1714162140.2620459,control,-0.012320569638477915,0.7939124658025385,0,,,
1714162140.278067,control,-0.01373072119750794,0.797069797803618,0,,,
1714162140.305093,control,-0.015778897204637675,0.797069797803618,0,,,
1714162140.3100364,control,-0.01608109789882117,0.797069797803618,0,,,
1714162140.3373773,control,-0.01732350998331341,0.797069797803618,0,,,
1714162140.3423789,control,-0.01749140752423187,0.797069797803618,0,,,
1714162140.369004,control,-0.0179951060999946,0.797069797803618,0,,,
1714162140.3750026,control,-0.01819658807192446,0.797069797803618,0,,,
1714162140.390608,control,-0.01819658807192446,0.797069797803618,0,,,
1714162140.4069376,control,-0.01819658807192446,0.797069797803618,0,,,
1714162140.4234464,control,-0.01819658807192446,0.797069797803618,0,,,
1714162140.4500854,control,-0.018062266594214418,0.797069797803618,0,,,
1714162140.4550855,control,-0.01796152591377834,0.797069797803618,0,,,
1714162140.4713137,control,-0.017625726266327857,0.797069797803618,0,,,
1714162140.4871895,control,-0.01712203422220806,0.797069797803618,0,,,
1714162140.5027056,control,-0.016618350863306774,0.797069797803618,0,,,
1714162140.5192986,control,-0.015946786119936343,0.797069797803618,0,,,
1714162140.5350282,control,-0.01530881294257266,0.797069797803618,0,,,
1714162140.5506775,control,-0.0147044288014644,0.797069797803618,0,,,
1714162140.5666947,control,-0.013999327513279185,0.797069797803618,0,,,
1714162140.5832124,control,-0.013327815425993978,0.797069797803618,0,,,
1714162140.5988302,control,-0.012689890083571057,0.797069797803618,0,,,
1714162140.6153433,control,-0.012119123545796005,0.797069797803618,0,,,
1714162140.6315265,control,-0.0116490864591435,0.797069797803618,0,,,
1714162140.6475585,control,-0.011447643581044279,0.797069797803618,0,,,
1714162140.6630743,control,-0.011414069858783625,0.7939124658025385,0,,,
1714162140.679119,control,-0.011414069858783625,0.7939124658025385,0,,,
1714162140.6951725,control,-0.011414069858783625,0.7907447988173995,0,,,
1714162140.7217317,control,-0.011414069858783625,0.7907447988173995,0,,,
1714162140.7272644,control,-0.011414069858783625,0.7907447988173995,0,,,
1714162140.7427728,control,-0.011447643581044279,0.7907447988173995,0,,,
1714162140.7585306,control,-0.011481217329109023,0.7907447988173995,0,,,
1714162140.7750754,control,-0.011581938728884762,0.7907447988173995,0,,,
1714162140.802131,control,-0.011581938728884762,0.7907447988173995,0,,,
1714162140.807484,control,-0.011581938728884762,0.7907447988173995,0,,,
1714162140.8229957,control,-0.011581938728884762,0.7907447988173995,0,,,
1714162140.8390696,control,-0.011581938728884762,0.7907447988173995,0,,,
1714162140.855139,control,-0.011581938728884762,0.7907447988173995,0,,,
1714162140.8706973,control,-0.011581938728884762,0.7907447988173995,0,,,
1714162140.8873122,control,-0.011581938728884762,0.7907447988173995,0,,,
1714162140.902828,control,-0.011581938728884762,0.7907447988173995,0,,,
1714162140.9189734,control,-0.011581938728884762,0.7907447988173995,0,,,
1714162140.9350154,control,-0.011581938728884762,0.7907447988173995,0,,,
1714162140.9510481,control,-0.011414069858783625,0.7907447988173995,0,,,
1714162140.9671223,control,-0.011111907507131544,0.7907447988173995,0,,,
1714162140.9826355,control,-0.010641881194613876,0.7907447988173995,0,,,
1714162140.9986808,control,-0.009903277836879698,0.7907447988173995,0,,,
1714162141.015249,control,-0.008862536711238747,0.7907447988173995,0,,,
1714162141.0313692,control,-0.007486101754031886,0.7907447988173995,0,,,
1714162141.0473945,control,-0.005740419497629653,0.7907447988173995,0,,,
1714162141.0631092,control,-0.0038269229789062425,0.7907447988173995,0,,,
1714162141.0791354,control,-0.00174560724178601,0.7907447988173995,0,,,
1714162141.0952966,control,0.00036926271209609826,0.7907447988173995,0,,,
1714162141.1113222,control,0.0024169968940805963,0.7907447988173995,0,,,
1714162141.1274343,control,0.004263331493878723,0.7907447988173995,0,,,
1714162141.1429539,control,0.00567327863914869,0.7907447988173995,0,,,
1714162141.1593666,control,0.0066803972258384975,0.7907447988173995,0,,,
1714162141.1754363,control,0.007251103642551727,0.7907447988173995,0,,,
1714162141.2024472,control,0.0073853881779579935,0.7907447988173995,0,,,
1714162141.2069561,control,0.0073853881779579935,0.7907447988173995,0,,,
1714162141.2332504,control,0.0071839614732117,0.7907447988173995,0,,,
1714162141.2394147,control,0.0070161063318982565,0.7907447988173995,0,,,
1714162141.2549314,control,0.006881822503947847,0.7907447988173995,0,,,
1714162141.2711885,control,0.006814680683341278,0.7907447988173995,0,,,
1714162141.2872932,control,0.006814680683341278,0.7843781876965453,0,,,
1714162141.3140411,control,0.006814680683341278,0.7843781876965453,0,,,
1714162141.319233,control,0.006814680683341278,0.7843781876965453,0,,,
1714162141.346989,control,0.0070161063318982565,0.7843781876965453,0,,,
1714162141.3509881,control,0.007049677328230885,0.7843781876965453,0,,,
1714162141.3668194,control,0.0071839614732117,0.7875667289663495,0,,,
1714162141.3833373,control,0.0073853881779579935,0.7875667289663495,0,,,
1714162141.3994272,control,0.007586815481963918,0.7875667289663495,0,,,
1714162141.4149432,control,0.007888957597341368,0.7875667289663495,0,,,
1714162141.4308095,control,0.008123958013337151,0.7875667289663495,0,,,
1714162141.4588392,control,0.008728248979734673,0.7875667289663495,0,,,
1714162141.4633467,control,0.00879539280583752,0.7875667289663495,0,,,
1714162141.4900007,control,0.00929897407105946,0.7875667289663495,0,,,
1714162141.4950016,control,0.009433263194380818,0.7875667289663495,0,,,
1714162141.5107164,control,0.009500407883314273,0.7875667289663495,0,,,
1714162141.5267415,control,0.009601125077508358,0.7875667289663495,0,,,
1714162141.5430202,control,0.009601125077508358,0.7843781876965453,0,,,
1714162141.558553,control,0.009601125077508358,0.7843781876965453,0,,,
