timestamp,event_type,steering,throttle,brake,instruction,user_response,button_pressed
1714158426.9526284,control,0.0,0.6212635577612914,0.6212635577612914,,,
1714158426.9794147,control,0.0,0.6212635577612914,0.6212635577612914,,,
1714158426.9844232,control,0.0,0.6212635577612914,0.6212635577612914,,,
1714158427.002466,control,0.0,0.6212635577612914,0.6212635577612914,,,
1714158427.0189712,control,0.0,0.6212635577612914,0.6212635577612914,,,
1714158427.034887,control,0.0,0.6212635577612914,0.6212635577612914,,,
1714158427.06191,control,0.0,0.6212635577612914,0.6212635577612914,,,
1714158427.0669115,control,0.0,0.6212635577612914,0.6212635577612914,,,
1714158427.0826225,control,0.0,0.6212635577612914,0.6212635577612914,,,
1714158427.0988412,control,0.0,0.6212635577612914,0.6212635577612914,,,
1714158427.1148682,control,0.0,0.6212635577612914,0.6212635577612914,,,
1714158427.1416984,control,0.0,0.6212635577612914,0.6212635577612914,,,
1714158427.1466944,control,0.0,0.6212635577612914,0.6212635577612914,,,
1714158427.1652017,control,0.0,0.6212635577612914,0.6212635577612914,,,
1714158427.1819222,control,0.0,0.6212635577612914,0.6212635577612914,,,
1714158427.197776,control,0.0,0.6212635577612914,0.6212635577612914,,,
1714158427.2146165,control,0.0,0.6212635577612914,0.6212635577612914,,,
1714158427.2296395,control,0.0,0.6212635577612914,0.6212635577612914,,,
1714158427.2577896,control,0.0,0.6212635577612914,0.6212635577612914,,,
1714158427.2739828,control,0.0,0.6212635577612914,0.6212635577612914,,,
1714158427.2890043,control,0.0,0.6212635577612914,0.6212635577612914,,,
1714158427.3075316,control,0.0,0.6212635577612914,0.6212635577612914,,,
1714158427.3234494,control,0.0,0.6212635577612914,0.6212635577612914,,,
1714158427.3394685,control,0.0,0.6212635577612914,0.6212635577612914,,,
1714158427.3570333,control,0.0,0.6212635577612914,0.6212635577612914,,,
1714158427.3835738,control,0.0,0.6212635577612914,0.6212635577612914,,,
1714158427.3890975,control,0.0,0.6212635577612914,0.6212635577612914,,,
1714158427.4046223,control,0.0,0.6212635577612914,0.6212635577612914,,,
1714158427.4206462,control,0.0,0.6212635577612914,0.6212635577612914,,,
1714158427.4377494,control,0.0,0.6212635577612914,0.6212635577612914,,,
1714158427.4663162,control,0.0,0.6212635577612914,0.6212635577612914,,,
1714158427.4818547,control,0.0,0.6212635577612914,0.6212635577612914,,,
1714158427.497366,control,0.0,0.6212635577612914,0.6212635577612914,,,
1714158427.513113,control,0.0,0.6212635577612914,0.6212635577612914,,,
1714158427.540393,control,0.0,0.6212635577612914,0.6212635577612914,,,
1714158427.5453923,control,0.0,0.6212635577612914,0.6212635577612914,,,
1714158427.5668871,control,0.0,0.6212635577612914,0.6212635577612914,,,
1714158427.5930772,control,0.0,0.6212635577612914,0.6212635577612914,,,
1714158427.5986774,control,0.0,0.6212635577612914,0.6212635577612914,,,
1714158427.626569,control,0.0,0.6212635577612914,0.6212635577612914,,,
1714158427.6416008,control,0.0,0.6212635577612914,0.6212635577612914,,,
1714158427.6674542,control,0.0,0.6212635577612914,0.6212635577612914,,,
1714158427.6750371,control,0.0,0.6212635577612914,0.6212635577612914,,,
1714158427.7018106,control,0.0,0.6212635577612914,0.6212635577612914,,,
1714158427.7068095,control,0.0,0.6212635577612914,0.6212635577612914,,,
1714158427.7248447,control,0.0,0.6212635577612914,0.6212635577612914,,,
1714158427.740571,control,0.0,0.6212635577612914,0.6212635577612914,,,
1714158427.756834,control,0.0,0.6212635577612914,0.6212635577612914,,,
1714158427.7728012,control,0.0,0.6212635577612914,0.6212635577612914,,,
1714158427.789811,control,0.0,0.6212635577612914,0.6212635577612914,,,
1714158427.8171268,control,0.0,0.6212635577612914,0.6212635577612914,,,
1714158427.8216362,control,0.0,0.6212635577612914,0.6212635577612914,,,
1714158427.837144,control,0.0,0.6212635577612914,0.6212635577612914,,,
1714158427.8531775,control,0.0,0.6212635577612914,0.6212635577612914,,,
1714158427.8691268,control,0.0,0.6212635577612914,0.6212635577612914,,,
1714158427.8976886,control,0.0,0.6212635577612914,0.6212635577612914,,,
1714158427.9032028,control,0.0,0.6212635577612914,0.6212635577612914,,,
1714158427.9227636,control,0.0,0.6212635577612914,0.6212635577612914,,,
1714158427.9520726,control,0.0,0.6212635577612914,0.6212635577612914,,,
1714158427.9560769,control,0.0,0.6212635577612914,0.6212635577612914,,,
1714158427.9716346,control,0.0,0.6212635577612914,0.6212635577612914,,,
1714158427.9875534,control,0.0,0.6212635577612914,0.6212635577612914,,,
1714158428.007573,control,0.0,0.6212635577612914,0.6212635577612914,,,
1714158428.0225437,control,0.0,0.6212635577612914,0.6212635577612914,,,
1714158428.0405688,control,0.0,0.6212635577612914,0.6212635577612914,,,
1714158428.0673466,control,0.0,0.6212635577612914,0.6212635577612914,,,
1714158428.084169,control,0.0,0.6212635577612914,0.6212635577612914,,,
1714158428.099822,control,0.0,0.6212635577612914,0.6212635577612914,,,
1714158428.1426325,control,0.0,0.6212635577612914,0.6212635577612914,,,
1714158428.1498685,control,0.0,0.6212635577612914,0.6212635577612914,,,
1714158428.1664085,control,0.0,0.6212635577612914,0.6212635577612914,,,
1714158428.1814337,control,0.0,0.6212635577612914,0.6212635577612914,,,
1714158428.1972294,control,0.0,0.6212635577612914,0.6212635577612914,,,
1714158428.213778,control,0.0,0.6212635577612914,0.6212635577612914,,,
1714158428.229327,control,0.0,0.6212635577612914,0.6212635577612914,,,
1714158428.2573605,control,0.0,0.6212635577612914,0.6212635577612914,,,
1714158428.2628772,control,0.0,0.6212635577612914,0.6212635577612914,,,
1714158428.2799125,control,0.0,0.6212635577612914,0.6212635577612914,,,
1714158428.2959988,control,0.0,0.6212635577612914,0.6212635577612914,,,
1714158428.3118093,control,0.0,0.6212635577612914,0.6212635577612914,,,
1714158428.3401248,control,0.0,0.6212635577612914,0.6212635577612914,,,
1714158428.3444726,control,0.0,0.6212635577612914,0.6212635577612914,,,
1714158428.3611753,control,0.0,0.6212635577612914,0.6212635577612914,,,
1714158428.376686,control,0.0,0.6212635577612914,0.6212635577612914,,,
1714158428.3927739,control,0.0,0.6212635577612914,0.6212635577612914,,,
1714158428.40881,control,0.0,0.6212635577612914,0.6212635577612914,,,
1714158428.4323783,control,0.0,0.6212635577612914,0.6212635577612914,,,
1714158428.4478989,control,0.0,0.6212635577612914,0.6212635577612914,,,
1714158428.4639342,control,0.0,0.6212635577612914,0.6212635577612914,,,
1714158428.4910424,control,0.0,0.6212635577612914,0.6212635577612914,,,
1714158428.4960418,control,0.0,0.6212635577612914,0.6212635577612914,,,
1714158428.5116813,control,0.0,0.6212635577612914,0.6212635577612914,,,
1714158428.527195,control,0.0,0.6212635577612914,0.6212635577612914,,,
1714158428.5437553,control,0.0,0.6212635577612914,0.6212635577612914,,,
1714158428.5613034,control,0.0,0.6212635577612914,0.6212635577612914,,,
1714158428.5768309,control,0.0,0.6212635577612914,0.6212635577612914,,,
1714158428.5928657,control,0.0,0.6212635577612914,0.6212635577612914,,,
1714158428.6199524,control,0.0,0.6212635577612914,0.6212635577612914,,,
1714158428.624953,control,0.0,0.6212635577612914,0.6212635577612914,,,
1714158428.64048,control,0.0,0.6212635577612914,0.6212635577612914,,,
1714158428.6565204,control,0.0,0.6212635577612914,0.6212635577612914,,,
1714158428.672181,control,0.0,0.6212635577612914,0.6212635577612914,,,
1714158428.6886911,control,0.0,0.6212635577612914,0.6212635577612914,,,
1714158428.7057118,control,0.0,0.6212635577612914,0.6212635577612914,,,
1714158428.7322664,control,0.0,0.6212635577612914,0.6212635577612914,,,
1714158428.7372665,control,0.0,0.6212635577612914,0.6212635577612914,,,
1714158428.753285,control,0.0,0.6212635577612914,0.6212635577612914,,,
1714158428.781511,control,-0.003692643736813869,0,0,,,
1714158428.786518,control,-0.003692643736813869,0,0,,,
1714158428.8051648,control,-0.003692643736813869,0,0,,,
1714158428.819756,control,-0.003692643736813869,0.010074752446523894,0,,,
1714158428.8385243,control,-0.003692643736813869,0.024407952688081158,0,,,
1714158428.8567452,control,-0.003692643736813869,0.03152288171889883,0,,,
1714158428.8727748,control,-0.003692643736813869,0.059365196501131035,0,,,
1714158428.8889525,control,-0.003692643736813869,0.07973353318972798,0,,,
1714158428.9162412,control,-0.003692643736813869,0.09968198510957893,0,,,
1714158428.9223406,control,-0.003692643736813869,0.10624112294099608,0,,,
1714158428.9505286,control,-0.003692643736813869,0.13838607675206616,0,,,
1714158428.966738,control,-0.003692643736813869,0.15095092562560875,0,,,
1714158428.9826808,control,-0.003692643736813869,0.18169057485634932,0,,,
1714158429.0001502,control,-0.003692643736813869,0.21146121529928097,0,,,
1714158429.0272667,control,-0.003692643736813869,0.2516589786340906,0,,,
1714158429.0332844,control,-0.003692643736813869,0.2572675978861203,0,,,
1714158429.0486057,control,-0.003692643736813869,0.2793825603240505,0,,,
1714158429.077546,control,-0.003692643736813869,0.2902741531975883,0,,,
1714158429.082655,control,-0.003692643736813869,0.2902741531975883,0,,,
1714158429.1111345,control,-0.003692643736813869,0.2956639868463129,0,,,
1714158429.1161358,control,-0.003692643736813869,0.2956639868463129,0,,,
1714158429.1326668,control,-0.003692643736813869,0.3063544237406597,0,,,
1714158429.1626825,control,-0.003692643736813869,0.32738739779694637,0,,,
1714158429.1688051,control,-0.003692643736813869,0.33257498112325345,0,,,
1714158429.1830606,control,-0.003692643736813869,0.3377349040157591,0,,,
1714158429.1996503,control,-0.003692643736813869,0.34286745988410106,0,,,
1714158429.2153118,control,-0.003692643736813869,0.34797293749399727,0,,,
1714158429.2316585,control,-0.003692643736813869,0.3581037903641062,0,,,
1714158429.2489874,control,-0.003692643736813869,0.3631297208009001,0,,,
1714158429.26527,control,-0.003692643736813869,0.3731039454650429,0,,,
1714158429.2809327,control,-0.003692643736813869,0.3878751353819707,0,,,
1714158429.2965777,control,-0.003692643736813869,0.3927491831883587,0,,,
1714158429.3240361,control,-0.003692643736813869,0.42150708111974344,0,,,
1714158429.3300526,control,-0.003692643736813869,0.4262150514850285,0,,,
1714158429.345619,control,-0.003692643736813869,0.44020307724909813,0,,,
1714158429.3616438,control,-0.003692643736813869,0.44941734729060534,0,,,
1714158429.3771799,control,-0.003692643736813869,0.4675867878551181,0,,,
1714158429.404852,control,-0.003692643736813869,0.489829122983541,0,,,
1714158429.4099293,control,-0.003692643736813869,0.49423373242330904,0,,,
1714158429.442561,control,-0.003692643736813869,0.5115882385542678,0,,,
1714158429.4500725,control,-0.003692643736813869,0.5158786685404688,0,,,
1714158429.4655921,control,-0.003692643736813869,0.5286369949748542,0,,,
1714158429.4926684,control,-0.003692643736813869,0.5370500470588806,0,,,
1714158429.4976807,control,-0.003692643736813869,0.5370500470588806,0,,,
1714158429.513708,control,-0.003692643736813869,0.5495340567186471,0,,,
1714158429.5302615,control,-0.003692643736813869,0.5577681465172044,0,,,
1714158429.5587993,control,-0.003692643736813869,0.5780519701692741,0,,,
1714158429.5640643,control,-0.003692643736813869,0.5780519701692741,0,,,
1714158429.5895119,control,-0.003692643736813869,0.5900365268213725,0,,,
1714158429.5955074,control,-0.003692643736813869,0.5939935593690986,0,,,
1714158429.611639,control,-0.003692643736813869,0.6018594116313,0,,,
1714158429.6271715,control,-0.003692643736813869,0.6096618436644565,0,,,
1714158429.6438954,control,-0.003692643736813869,0.6135395950806545,0,,,
1714158429.6599777,control,-0.003692643736813869,0.6212487913919204,0,,,
1714158429.6770291,control,-0.003692643736813869,0.6212487913919204,0,,,
1714158429.70366,control,-0.003692643736813869,0.6212635577612914,0,,,
1714158429.7086601,control,-0.003692643736813869,0.6212635577612914,0,,,
1714158429.7246807,control,-0.003692643736813869,0.6212635577612914,0,,,
1714158429.7407727,control,-0.003692643736813869,0.6212635577612914,0,,,
1714158429.7569423,control,-0.003692643736813869,0.6212635577612914,0,,,
1714158429.7720313,control,-0.003692643736813869,0.6212635577612914,0,,,
1714158429.7900667,control,-0.003692643736813869,0.6212635577612914,0,,,
1714158429.805902,control,-0.003692643736813869,0.6212635577612914,0,,,
1714158429.8217344,control,-0.003692643736813869,0.6212635577612914,0,,,
1714158429.8372498,control,-0.003692643736813869,0.6212635577612914,0,,,
1714158429.864858,control,-0.003692643736813869,0.6212635577612914,0,,,
1714158429.869361,control,-0.003692643736813869,0.6212635577612914,0,,,
1714158429.8859105,control,-0.003692643736813869,0.6212635577612914,0,,,
1714158429.9017644,control,-0.003692643736813869,0.6212487913919204,0,,,
1714158429.9174175,control,-0.003692643736813869,0.6212487913919204,0,,,
1714158429.94496,control,-0.003692643736813869,0.6135395950806545,0,,,
1714158429.9509873,control,-0.003692643736813869,0.6135395950806545,0,,,
1714158429.9772935,control,-0.003692643736813869,0.6135395950806545,0,,,
1714158429.9828074,control,-0.003692643736813869,0.6135395950806545,0,,,
1714158430.0017421,control,-0.003692643736813869,0.6096618436644565,0,,,
1714158430.0166051,control,-0.003692643736813869,0.6096618436644565,0,,,
1714158430.0342822,control,-0.003692643736813869,0.6057684911947556,0,,,
1714158430.0614767,control,-0.003692643736813869,0.6018594116313,0,,,
1714158430.0674775,control,-0.003692643736813869,0.5979344774002306,0,,,
1714158430.082605,control,-0.003692643736813869,0.5979344774002306,0,,,
1714158430.0986278,control,-0.003692643736813869,0.5979344774002306,0,,,
1714158430.1146405,control,-0.003692643736813869,0.5979344774002306,0,,,
1714158430.1302526,control,-0.003692643736813869,0.5979344774002306,0,,,
1714158430.146772,control,-0.003692643736813869,0.5979344774002306,0,,,
1714158430.1734543,control,-0.003692643736813869,0.5939935593690986,0,,,
1714158430.17896,control,-0.003692643736813869,0.5900365268213725,0,,,
1714158430.1939113,control,-0.003692643736813869,0.5820735872329712,0,,,
1714158430.2108722,control,-0.003692643736813869,0.5780519701692741,0,,,
1714158430.2274413,control,-0.003692643736813869,0.5740290754661139,0,,,
1714158430.2541819,control,-0.003692643736813869,0.5536598593076767,0,,,
1714158430.2596948,control,-0.003692643736813869,0.5536598593076767,0,,,
1714158430.2772121,control,-0.003692643736813869,0.5328526635271087,0,,,
1714158430.2926388,control,-0.003692643736813869,0.5115882385542678,0,,,
1714158430.308963,control,-0.003692643736813869,0.49423373242330904,0,,,
1714158430.3244545,control,-0.003692643736813869,0.4720763407922195,0,,,
1714158430.3415954,control,-0.003692643736813869,0.45399178927524453,0,,,
1714158430.3588843,control,-0.003692643736813869,0.44482117906924334,0,,,
1714158430.3745203,control,-0.003692643736813869,0.43556283148517627,0,,,
1714158430.390757,control,-0.003692643736813869,0.42150708111974344,0,,,
1714158430.4063108,control,-0.003692643736813869,0.4120218652667349,0,,,
1714158430.4231746,control,-0.003692643736813869,0.4120218652667349,0,,,
1714158430.4523726,control,-0.003692643736813869,0.4120218652667349,0,,,
1714158430.4588773,control,-0.003692643736813869,0.4120218652667349,0,,,
1714158430.4746547,control,-0.003692643736813869,0.4120218652667349,0,,,
1714158430.4909592,control,-0.003692643736813869,0.4120218652667349,0,,,
1714158430.5060754,control,-0.003692643736813869,0.4120218652667349,0,,,
1714158430.5221047,control,-0.003692643736813869,0.4120218652667349,0,,,
1714158430.5388024,control,-0.003692643736813869,0.4120218652667349,0,,,
1714158430.5548472,control,-0.003692643736813869,0.4120218652667349,0,,,
1714158430.5818915,control,-0.003692643736813869,0.4167760944304628,0,,,
1714158430.5969293,control,-0.003692643736813869,0.4167760944304628,0,,,
1714158430.6127849,control,-0.003692643736813869,0.4167760944304628,0,,,
1714158430.6286762,control,-0.003692643736813869,0.4167760944304628,0,,,
1714158430.6557899,control,-0.003692643736813869,0.4167760944304628,0,,,
1714158430.660789,control,-0.003692643736813869,0.4167760944304628,0,,,
1714158430.6876671,control,-0.003692643736813869,0.4167760944304628,0,,,
1714158430.6936915,control,-0.003692643736813869,0.4167760944304628,0,,,
1714158430.721265,control,-0.003692643736813869,0.4167760944304628,0,,,
1714158430.7262654,control,-0.003692643736813869,0.4167760944304628,0,,,
1714158430.7417955,control,-0.003692643736813869,0.4167760944304628,0,,,
1714158430.7575088,control,-0.003692643736813869,0.4167760944304628,0,,,
1714158430.7727048,control,-0.003692643736813869,0.4167760944304628,0,,,
1714158430.802121,control,-0.003692643736813869,0.4167760944304628,0,,,
1714158430.807116,control,-0.003692643736813869,0.4167760944304628,0,,,
1714158430.8231716,control,-0.003692643736813869,0.4167760944304628,0,,,
1714158430.8398767,control,-0.003692643736813869,0.4120218652667349,0,,,
1714158430.8559113,control,-0.003692643736813869,0.4120218652667349,0,,,
1714158430.8718286,control,-0.003692643736813869,0.40724416412853137,0,,,
1714158430.8873446,control,-0.003692643736813869,0.40724416412853137,0,,,
1714158430.9039788,control,-0.003692643736813869,0.40724416412853137,0,,,
1714158430.9196131,control,-0.003692643736813869,0.4024427580997696,0,,,
1714158430.9473488,control,-0.003692643736813869,0.3927491831883587,0,,,
1714158430.9528584,control,-0.003692643736813869,0.3878751353819707,0,,,
1714158430.9673963,control,-0.003692643736813869,0.3780527695141902,0,,,
1714158430.9840174,control,-0.003692643736813869,0.36812968351497566,0,,,
1714158430.9999437,control,-0.003692643736813869,0.36812968351497566,0,,,
1714158431.0276327,control,-0.003692643736813869,0.3631297208009001,0,,,
1714158431.0346677,control,-0.003692643736813869,0.3581037903641062,0,,,
1714158431.0598183,control,-0.003692643736813869,0.34797293749399727,0,,,
1714158431.0663257,control,-0.003692643736813869,0.34797293749399727,0,,,
1714158431.0828466,control,-0.003692643736813869,0.34286745988410106,0,,,
1714158431.0988138,control,-0.003692643736813869,0.33257498112325345,0,,,
1714158431.1149364,control,-0.003692643736813869,0.33257498112325345,0,,,
1714158431.1417623,control,-0.003692643736813869,0.32738739779694637,0,,,
1714158431.1467502,control,-0.003692643736813869,0.32738739779694637,0,,,
1714158431.174518,control,-0.003692643736813869,0.32217185588316455,0,,,
1714158431.1796827,control,-0.003692643736813869,0.32217185588316455,0,,,
1714158431.195201,control,-0.003692643736813869,0.31692805238137467,0,,,
1714158431.2112348,control,-0.003692643736813869,0.31692805238137467,0,,,
1714158431.2277448,control,-0.003692643736813869,0.31692805238137467,0,,,
1714158431.255599,control,-0.003692643736813869,0.31692805238137467,0,,,
1714158431.2606232,control,-0.003692643736813869,0.32738739779694637,0,,,
1714158431.27582,control,-0.003692643736813869,0.32738739779694637,0,,,
1714158431.2910538,control,-0.003692643736813869,0.32738739779694637,0,,,
1714158431.3085618,control,-0.003692643736813869,0.33257498112325345,0,,,
1714158431.3249476,control,-0.003692643736813869,0.33257498112325345,0,,,
1714158431.3409562,control,-0.003692643736813869,0.3377349040157591,0,,,
1714158431.3673801,control,-0.003692643736813869,0.34797293749399727,0,,,
1714158431.38435,control,-0.003692643736813869,0.34797293749399727,0,,,
1714158431.3988855,control,-0.003692643736813869,0.34797293749399727,0,,,
1714158431.416303,control,-0.003692643736813869,0.3581037903641062,0,,,
1714158431.4439242,control,-0.003692643736813869,0.3631297208009001,0,,,
1714158431.4505854,control,-0.003692643736813869,0.3631297208009001,0,,,
1714158431.4688623,control,-0.003692643736813869,0.36812968351497566,0,,,
1714158431.484794,control,-0.003692643736813869,0.3780527695141902,0,,,
1714158431.5115337,control,-0.003692643736813869,0.3927491831883587,0,,,
1714158431.5275645,control,-0.003692643736813869,0.39761741078017865,0,,,
1714158431.5554802,control,-0.003692643736813869,0.4167760944304628,0,,,
1714158431.559999,control,-0.003692643736813869,0.42150708111974344,0,,,
1714158431.5786648,control,-0.003692643736813869,0.4262150514850285,0,,,
1714158431.59333,control,-0.003692643736813869,0.4262150514850285,0,,,
1714158431.6098392,control,-0.003692643736813869,0.44020307724909813,0,,,
1714158431.6359608,control,-0.003692643736813869,0.44482117906924334,0,,,
1714158431.6414733,control,-0.003692643736813869,0.44482117906924334,0,,,
1714158431.657563,control,-0.003692643736813869,0.44482117906924334,0,,,
1714158431.6735995,control,-0.003692643736813869,0.44482117906924334,0,,,
1714158431.6896212,control,-0.003692643736813869,0.44482117906924334,0,,,
1714158431.7051296,control,-0.003692643736813869,0.44941734729060534,0,,,
1714158431.722677,control,-0.003692643736813869,0.44941734729060534,0,,,
1714158431.738541,control,-0.003692643736813869,0.45399178927524453,0,,,
1714158431.7545748,control,-0.003692643736813869,0.4585447094584232,0,,,
1714158431.770921,control,-0.003692643736813869,0.4675867878551181,0,,,
1714158431.78645,control,-0.003692643736813869,0.4765451614784295,0,,,
1714158431.8039873,control,-0.003692643736813869,0.4854213658761737,0,,,
1714158431.83239,control,-0.003692643736813869,0.49860162338794534,0,,,
1714158431.837422,control,-0.003692643736813869,0.5072787020410159,0,,,
1714158431.8539684,control,-0.003692643736813869,0.5072787020410159,0,,,
1714158431.869974,control,-0.003692643736813869,0.5115882385542678,0,,,
1714158431.8851113,control,-0.003692643736813869,0.5115882385542678,0,,,
1714158431.9121873,control,-0.003692643736813869,0.5158786685404688,0,,,
1714158431.9171915,control,-0.003692643736813869,0.5158786685404688,0,,,
1714158431.9342422,control,-0.003692643736813869,0.5158786685404688,0,,,
1714158431.9497077,control,-0.003692643736813869,0.5201501606714016,0,,,
1714158431.9659932,control,-0.003692643736813869,0.5201501606714016,0,,,
1714158431.9941044,control,-0.003692643736813869,0.5201501606714016,0,,,
1714158432.0106983,control,-0.003692643736813869,0.5244028813951171,0,,,
1714158432.0262167,control,-0.003692643736813869,0.5286369949748542,0,,,
1714158432.0427682,control,-0.003692643736813869,0.5286369949748542,0,,,
1714158432.0699174,control,-0.003692643736813869,0.5286369949748542,0,,,
1714158432.077419,control,-0.003692643736813869,0.5286369949748542,0,,,
1714158432.0920348,control,-0.003692643736813869,0.5328526635271087,0,,,
1714158432.1075072,control,-0.003692643736813869,0.5328526635271087,0,,,
1714158432.124531,control,-0.003692643736813869,0.5412293035041142,0,,,
1714158432.1406105,control,-0.003692643736813869,0.5453905887593558,0,,,
1714158432.1625564,control,-0.003692643736813869,0.5495340567186471,0,,,
1714158432.177593,control,-0.003692643736813869,0.5536598593076767,0,,,
1714158432.2043881,control,-0.003692643736813869,0.5577681465172044,0,,,
1714158432.2098103,control,-0.003692643736813869,0.5577681465172044,0,,,
1714158432.236366,control,-0.003692643736813869,0.5659327652817765,0,,,
1714158432.2419715,control,-0.003692643736813869,0.5659327652817765,0,,,
1714158432.2689931,control,-0.003692643736813869,0.5780519701692741,0,,,
1714158432.2843585,control,-0.003692643736813869,0.5820735872329712,0,,,
1714158432.2999275,control,-0.003692643736813869,0.5820735872329712,0,,,
1714158432.3153024,control,-0.003692643736813869,0.5860632474304233,0,,,
1714158432.3428547,control,-0.003692643736813869,0.5939935593690986,0,,,
1714158432.3478522,control,-0.003692643736813869,0.5939935593690986,0,,,
1714158432.3634293,control,-0.003692643736813869,0.5979344774002306,0,,,
1714158432.3789408,control,-0.003692643736813869,0.6018594116313,0,,,
1714158432.3958633,control,-0.003692643736813869,0.6018594116313,0,,,
1714158432.425653,control,-0.003692643736813869,0.6096618436644565,0,,,
1714158432.4417884,control,-0.003692643736813869,0.6135395950806545,0,,,
1714158432.456802,control,-0.003692643736813869,0.6135395950806545,0,,,
1714158432.4843442,control,-0.003692643736813869,0.6174018699744762,0,,,
1714158432.489856,control,-0.003692643736813869,0.6212487913919204,0,,,
1714158432.5058646,control,-0.003692643736813869,0.6212487913919204,0,,,
1714158432.5216825,control,-0.003692643736813869,0.6212487913919204,0,,,
1714158432.5372086,control,-0.003692643736813869,0.6212635577612914,0,,,
1714158432.5532491,control,-0.003692643736813869,0.6212635577612914,0,,,
1714158432.5696807,control,-0.003692643736813869,0.6212635577612914,0,,,
1714158432.598573,control,-0.003692643736813869,0.6212635577612914,0,,,
1714158432.6035793,control,-0.003692643736813869,0.6212635577612914,0,,,
1714158432.6186538,control,-0.003692643736813869,0.6212635577612914,0,,,
1714158432.6343102,control,-0.003692643736813869,0.6212635577612914,0,,,
1714158432.6509695,control,-0.003692643736813869,0.6212635577612914,0,,,
1714158432.6775293,control,-0.003692643736813869,0.6212635577612914,0,,,
1714158432.6820462,control,-0.003692643736813869,0.6212635577612914,0,,,
1714158432.6986508,control,-0.003692643736813869,0.6212635577612914,0,,,
1714158432.7253082,control,-0.003692643736813869,0.6212635577612914,0,,,
1714158432.7303433,control,-0.003692643736813869,0.6212635577612914,0,,,
1714158432.7468982,control,-0.003692643736813869,0.6212635577612914,0,,,
1714158432.774325,control,-0.003692643736813869,0.6212635577612914,0,,,
1714158432.7788277,control,-0.003692643736813869,0.6212635577612914,0,,,
1714158432.7944417,control,-0.003692643736813869,0.6212635577612914,0,,,
1714158432.8106368,control,-0.003692643736813869,0.6212635577612914,0,,,
1714158432.8267267,control,-0.003692643736813869,0.6212635577612914,0,,,
1714158432.84277,control,-0.003692643736813869,0.6212635577612914,0,,,
1714158432.8598776,control,-0.003692643736813869,0.6212635577612914,0,,,
1714158432.8763893,control,-0.003692643736813869,0.6212635577612914,0,,,
1714158432.8914118,control,-0.003692643736813869,0.6250363555220111,0,,,
1714158432.9079313,control,0.010507588835095427,0.6287945016040417,0,,,
1714158432.937553,control,0.0116490864591435,0.6287945016040417,0,,,
1714158432.9417353,control,0.011816956245635021,0.6287945016040417,0,,,
1714158432.9627764,control,0.012824189280094475,0.6287945016040417,0,,,
1714158432.9899068,control,0.013831448331698892,0.6287945016040417,0,,,
1714158432.9949076,control,0.014133631426130902,0.6287945016040417,0,,,
1714158433.0227747,control,0.015140927356189686,0.6325381093670247,0,,,
1714158433.038895,control,0.01571174188804775,0.6362672908600797,0,,,
1714158433.0540464,control,0.01631614491052453,0.6399821568419266,0,,,
1714158433.071618,control,0.017155613418781343,0.6436828168006246,0,,,
1714158433.0986793,control,0.018834624137791592,0.6547006367625572,0,,,
1714158433.104688,control,0.01927118393133588,0.6547006367625572,0,,,
1714158433.120908,control,0.020312241073981493,0.6583455427660694,0,,,
1714158433.1490178,control,0.02212580189293572,0.6655944260979495,0,,,
1714158433.1540294,control,0.022327317412771747,0.6691986068000356,0,,,
1714158433.1699507,control,0.023200572486420677,0.6691986068000356,0,,,
1714158433.1964195,control,0.024342574999120282,0.6763669462430741,0,,,
1714158433.2019277,control,0.024476932350357188,0.6799313016534824,0,,,
1714158433.2172728,control,0.024779239627186606,0.6834825768311373,0,,,
1714158433.2339349,control,0.02484641963479027,0.6834825768311373,0,,,
1714158433.2499743,control,0.024947190066636232,0.6870208674270563,0,,,
1714158433.265838,control,0.024947190066636232,0.6905462680468858,0,,,
1714158433.2820177,control,0.025014370635712057,0.6940588722660791,0,,,
1714158433.3090355,control,0.02561900598449338,0.7045208271325776,0,,,
1714158433.3139343,control,0.025686188837382905,0.7079831614159194,0,,,
1714158433.3288343,control,0.026156475329726328,0.7148708872888985,0,,,
1714158433.3455524,control,0.026626773384466784,0.7182964533433602,0,,,
1714158433.3610995,control,0.026828333284741095,0.7217099362473083,0,,,
1714158433.3876746,control,0.026962707760763677,0.7251114209440678,0,,,
1714158433.393195,control,0.026962707760763677,0.7251114209440678,0,,,
1714158433.409213,control,0.026962707760763677,0.7285009914843854,0,,,
1714158433.4259331,control,0.026962707760763677,0.7285009914843854,0,,,
1714158433.4425635,control,0.026962707760763677,0.7285009914843854,0,,,
1714158433.4588802,control,0.026962707760763677,0.731878731038892,0,,,
1714158433.477713,control,0.026929114050728606,0.731878731038892,0,,,
1714158433.4937358,control,0.026828333284741095,0.731878731038892,0,,,
1714158433.5095541,control,0.026626773384466784,0.731878731038892,0,,,
1714158433.5285697,control,0.026290845013568927,0.731878731038892,0,,,
1714158433.543619,control,0.0259213306512658,0.731878731038892,0,,,
1714158433.5596416,control,0.02548464097144382,0.731878731038892,0,,,
1714158433.586386,control,0.024644880281953614,0.731878731038892,0,,,
1714158433.6017294,control,0.024107451745025092,0.731878731038892,0,,,
1714158433.6178262,control,0.02350286126119376,0.731878731038892,0,,,
1714158433.6333547,control,0.022999048994276516,0.731878731038892,0,,,
1714158433.661055,control,0.02202504480757715,0.7285009914843854,0,,,
1714158433.6660547,control,0.021823531975745096,0.7285009914843854,0,,,
1714158433.6826599,control,0.021353342229142213,0.7285009914843854,0,,,
1714158433.698665,control,0.02098391405902931,0.7251114209440678,0,,,
1714158433.7147677,control,0.020480157579111802,0.7251114209440678,0,,,
1714158433.7364202,control,0.019942828779636625,0.7251114209440678,0,,,
1714158433.7637446,control,0.019136857066651403,0.7251114209440678,0,,,
1714158433.768744,control,0.018935368062503004,0.7251114209440678,0,,,
1714158433.7843225,control,0.01809584690236949,0.7251114209440678,0,,,
1714158433.8000638,control,0.017088455064235744,0.7217099362473083,0,,,
1714158433.8170934,control,0.015812474916251786,0.7217099362473083,0,,,
1714158433.8440907,control,0.013327815425993978,0.7182964533433602,0,,,
1714158433.849629,control,0.012656315356142192,0.7182964533433602,0,,,
1714158433.8646019,control,0.010809747184296021,0.7182964533433602,0,,,
1714158433.8926013,control,0.007351817019326462,0.7182964533433602,0,,,
1714158433.8976014,control,0.006512543242173983,0.7182964533433602,0,,,
1714158433.9149525,control,0.004028342102315501,0.7148708872888985,0,,,
1714158433.9305809,control,0.001980593410097507,0.7148708872888985,0,,,
1714158433.9476194,control,0.0,0.7114331522353371,0,,,
1714158433.974618,control,-0.0026519837561859573,0.7114331522353371,0,,,
1714158433.9796681,control,-0.003155528051635838,0.7079831614159194,0,,,
1714158433.9951656,control,-0.004364041375739933,0.7045208271325776,0,,,
1714158434.0234163,control,-0.005706849061957913,0.7010460607425574,0,,,
1714158434.027418,control,-0.005841130882576674,0.7010460607425574,0,,,
1714158434.0446236,control,-0.006042554009974013,0.7010460607425574,0,,,
1714158434.0606692,control,-0.006042554009974013,0.7010460607425574,0,,,
1714158434.0767946,control,-0.006042554009974013,0.7010460607425574,0,,,
1714158434.092925,control,-0.006042554009974013,0.7010460607425574,0,,,
1714158434.1085951,control,-0.006042554009974013,0.7010460607425574,0,,,
1714158434.1243834,control,-0.006042554009974013,0.7079831614159194,0,,,
1714158434.151981,control,-0.006042554009974013,0.7114331522353371,0,,,
1714158434.1583822,control,-0.006042554009974013,0.7114331522353371,0,,,
1714158434.1732807,control,-0.006042554009974013,0.7114331522353371,0,,,
1714158434.189299,control,-0.006042554009974013,0.7114331522353371,0,,,
1714158434.2052531,control,-0.006042554009974013,0.7148708872888985,0,,,
1714158434.232449,control,-0.006042554009974013,0.7148708872888985,0,,,
1714158434.2374454,control,-0.006042554009974013,0.7148708872888985,0,,,
1714158434.2534888,control,-0.006042554009974013,0.7182964533433602,0,,,
1714158434.2690134,control,-0.006042554009974013,0.7182964533433602,0,,,
1714158434.2855473,control,-0.006042554009974013,0.7182964533433602,0,,,
1714158434.3015826,control,-0.005975412913838536,0.7182964533433602,0,,,
1714158434.3178008,control,-0.005841130882576674,0.7182964533433602,0,,,
1714158434.333354,control,-0.005841130882576674,0.7182964533433602,0,,,
1714158434.3605924,control,-0.005841130882576674,0.7182964533433602,0,,,
1714158434.379854,control,-0.005841130882576674,0.7182964533433602,0,,,
1714158434.4066808,control,-0.005841130882576674,0.7182964533433602,0,,,
1714158434.4117324,control,-0.005841130882576674,0.7182964533433602,0,,,
1714158434.429857,control,-0.005841130882576674,0.7182964533433602,0,,,
1714158434.4458761,control,-0.005841130882576674,0.7182964533433602,0,,,
1714158434.4674063,control,-0.005841130882576674,0.7182964533433602,0,,,
1714158434.4960146,control,-0.005841130882576674,0.7182964533433602,0,,,
1714158434.5015259,control,-0.005841130882576674,0.7182964533433602,0,,,
1714158434.5289516,control,-0.005841130882576674,0.7182964533433602,0,,,
1714158434.544186,control,-0.005807560407863365,0.7182964533433602,0,,,
1714158434.5592165,control,-0.005807560407863365,0.7182964533433602,0,,,
1714158434.5757368,control,-0.005807560407863365,0.7182964533433602,0,,,
1714158434.6019578,control,-0.005505426715391976,0.7182964533433602,0,,,
1714158434.607451,control,-0.005371145400193799,0.7182964533433602,0,,,
1714158434.6236162,control,-0.005102583346035085,0.7182964533433602,0,,,
1714158434.6499588,control,-0.004263331493878723,0.7182964533433602,0,,,
1714158434.6559594,control,-0.004129051785568245,0.7182964533433602,0,,,
1714158434.6835117,control,-0.0029876797879627216,0.7148708872888985,0,,,
1714158434.6910229,control,-0.0026519837561859573,0.7148708872888985,0,,,
1714158434.7062268,control,-0.0018127461262116592,0.7148708872888985,0,,,
1714158434.733805,control,-0.0006713868196281389,0.7148708872888985,0,,,
1714158434.7385883,control,-0.0004699707377261985,0.7148708872888985,0,,,
1714158434.7541354,control,0.0,0.7148708872888985,0,,,
1714158434.7706857,control,0.0004699707377261985,0.7148708872888985,0,,,
1714158434.7866209,control,0.0006713868196281389,0.7148708872888985,0,,,
1714158434.813874,control,0.0007049561714665577,0.7114331522353371,0,,,
1714158434.8188753,control,0.0007049561714665577,0.7114331522353371,0,,,
1714158434.8344176,control,0.0007049561714665577,0.7114331522353371,0,,,
1714158434.8504446,control,0.0007049561714665577,0.7114331522353371,0,,,
1714158434.8671806,control,0.0007049561714665577,0.7114331522353371,0,,,
1714158434.8827329,control,0.0007049561714665577,0.7114331522353371,0,,,
1714158434.8987627,control,0.0007049561714665577,0.7114331522353371,0,,,
1714158434.9164412,control,0.0007049561714665577,0.7114331522353371,0,,,
1714158434.9438694,control,0.0007049561714665577,0.7114331522353371,0,,,
1714158434.9488685,control,0.0007049561714665577,0.7114331522353371,0,,,
1714158434.9676034,control,0.0007049561714665577,0.7114331522353371,0,,,
1714158434.9822538,control,0.0007049561714665577,0.7114331522353371,0,,,
1714158434.9992661,control,0.0007049561714665577,0.7114331522353371,0,,,
1714158435.015792,control,0.0006378174693028928,0.7114331522353371,0,,,
1714158435.0318232,control,0.0006042481204151607,0.7114331522353371,0,,,
1714158435.0476532,control,0.0004699707377261985,0.7079831614159194,0,,,
1714158435.0646818,control,0.0004699707377261985,0.7079831614159194,0,,,
1714158435.07885,control,0.0004699707377261985,0.7079831614159194,0,,,
1714158435.095616,control,0.0004699707377261985,0.7079831614159194,0,,,
1714158435.1225848,control,0.0004699707377261985,0.7079831614159194,0,,,
1714158435.1275826,control,0.0004699707377261985,0.7079831614159194,0,,,
1714158435.142993,control,0.0004699707377261985,0.7079831614159194,0,,,
1714158435.1705303,control,0.0004699707377261985,0.7079831614159194,0,,,
1714158435.1906705,control,0.0004699707377261985,0.7079831614159194,0,,,
1714158435.205805,control,0.0004699707377261985,0.7079831614159194,0,,,
1714158435.2218256,control,0.0004699707377261985,0.7079831614159194,0,,,
1714158435.248748,control,0.0004699707377261985,0.7079831614159194,0,,,
1714158435.2548501,control,0.0004699707377261985,0.7079831614159194,0,,,
1714158435.26988,control,0.0004699707377261985,0.7079831614159194,0,,,
1714158435.29656,control,0.0004699707377261985,0.7079831614159194,0,,,
1714158435.30107,control,0.0004699707377261985,0.7079831614159194,0,,,
1714158435.3175902,control,0.0004699707377261985,0.7079831614159194,0,,,
1714158435.3332572,control,0.0004699707377261985,0.7079831614159194,0,,,
1714158435.3503108,control,0.0004699707377261985,0.7079831614159194,0,,,
1714158435.3762913,control,0.0003021240326300191,0.7079831614159194,0,,,
1714158435.381827,control,0.0003021240326300191,0.7079831614159194,0,,,
1714158435.3986204,control,0.00016784668126372065,0.7079831614159194,0,,,
1714158435.4146576,control,-0.00013427734455702498,0.7079831614159194,0,,,
1714158435.4308114,control,-0.0004699707377261985,0.7079831614159194,0,,,
1714158435.446951,control,-0.0008392335954651351,0.7079831614159194,0,,,
1714158435.463909,control,-0.0011749272984564764,0.7079831614159194,0,,,
1714158435.4921672,control,-0.0018127461262116592,0.7079831614159194,0,,,
1714158435.4971664,control,-0.0018463155745150268,0.7079831614159194,0,,,
1714158435.512193,control,-0.002014162879963678,0.7079831614159194,0,,,
1714158435.5397694,control,-0.002014162879963678,0.7079831614159194,0,,,
1714158435.555253,control,-0.002014162879963678,0.7079831614159194,0,,,
1714158435.5702832,control,-0.002014162879963678,0.7079831614159194,0,,,
1714158435.5867999,control,-0.002014162879963678,0.7045208271325776,0,,,
1714158435.6129937,control,-0.002014162879963678,0.7010460607425574,0,,,
1714158435.618683,control,-0.002014162879963678,0.7010460607425574,0,,,
1714158435.6347075,control,-0.002014162879963678,0.7010460607425574,0,,,
1714158435.660815,control,-0.002014162879963678,0.7010460607425574,0,,,
1714158435.6659715,control,-0.002014162879963678,0.7010460607425574,0,,,
1714158435.6930296,control,-0.002014162879963678,0.7010460607425574,0,,,
1714158435.6986465,control,-0.002014162879963678,0.7010460607425574,0,,,
1714158435.7142773,control,-0.002014162879963678,0.6975587726447999,0,,,
1714158435.741191,control,-0.002014162879963678,0.6975587726447999,0,,,
1714158435.7461908,control,-0.002014162879963678,0.6975587726447999,0,,,
1714158435.7627397,control,-0.002014162879963678,0.6975587726447999,0,,,
1714158435.778903,control,-0.002014162879963678,0.6975587726447999,0,,,
1714158435.794926,control,-0.002014162879963678,0.6975587726447999,0,,,
1714158435.8215988,control,-0.002014162879963678,0.6975587726447999,0,,,
1714158435.8276021,control,-0.002014162879963678,0.6975587726447999,0,,,
1714158435.842961,control,-0.002014162879963678,0.6975587726447999,0,,,
1714158435.8694854,control,-0.002014162879963678,0.6975587726447999,0,,,
1714158435.8750267,control,-0.002014162879963678,0.6975587726447999,0,,,
1714158435.8904157,control,-0.002014162879963678,0.6975587726447999,0,,,
1714158435.9187984,control,-0.002014162879963678,0.6975587726447999,0,,,
1714158435.923809,control,-0.002014162879963678,0.6975587726447999,0,,,
1714158435.9398608,control,-0.002014162879963678,0.6975587726447999,0,,,
1714158435.9552026,control,-0.002014162879963678,0.6940588722660791,0,,,
1714158435.9716337,control,-0.002014162879963678,0.6940588722660791,0,,,
1714158435.9988196,control,-0.002014162879963678,0.6870208674270563,0,,,
1714158436.0038297,control,-0.002014162879963678,0.6834825768311373,0,,,
1714158436.0189476,control,-0.002014162879963678,0.6799313016534824,0,,,
1714158436.0489862,control,-0.002014162879963678,0.6763669462430741,0,,,
1714158436.0551033,control,-0.002014162879963678,0.6727894138880657,0,,,
1714158436.0707595,control,-0.002014162879963678,0.6727894138880657,0,,,
1714158436.0970619,control,-0.002014162879963678,0.6727894138880657,0,,,
1714158436.1138327,control,-0.002114871317102071,0.6691986068000356,0,,,
1714158436.1289995,control,-0.002114871317102071,0.6691986068000356,0,,,
1714158436.145021,control,-0.002114871317102071,0.6691986068000356,0,,,
1714158436.1732066,control,-0.002114871317102071,0.6691986068000356,0,,,
1714158436.1772056,control,-0.002114871317102071,0.6691986068000356,0,,,
1714158436.193843,control,-0.002114871317102071,0.6691986068000356,0,,,
1714158436.2209373,control,-0.002114871317102071,0.6691986068000356,0,,,
1714158436.2259364,control,-0.002114871317102071,0.6691986068000356,0,,,
1714158436.2430122,control,-0.002114871317102071,0.6691986068000356,0,,,
1714158436.2585704,control,-0.002114871317102071,0.6691986068000356,0,,,
1714158436.2746394,control,-0.002114871317102071,0.6691986068000356,0,,,
1714158436.3011649,control,-0.002114871317102071,0.6691986068000356,0,,,
1714158436.3176844,control,-0.002114871317102071,0.6691986068000356,0,,,
1714158436.3332295,control,-0.002114871317102071,0.6691986068000356,0,,,
1714158436.3499143,control,-0.002114871317102071,0.6691986068000356,0,,,
1714158436.3659403,control,-0.002114871317102071,0.6691986068000356,0,,,
1714158436.3926463,control,-0.002114871317102071,0.6691986068000356,0,,,
1714158436.3976471,control,-0.002114871317102071,0.6691986068000356,0,,,
1714158436.4137006,control,-0.002114871317102071,0.6691986068000356,0,,,
1714158436.4299214,control,-0.002114871317102071,0.6691986068000356,0,,,
1714158436.4459474,control,-0.002114871317102071,0.6691986068000356,0,,,
1714158436.4743142,control,-0.002114871317102071,0.6691986068000356,0,,,
1714158436.4798222,control,-0.002114871317102071,0.6691986068000356,0,,,
1714158436.4953349,control,-0.002114871317102071,0.6691986068000356,0,,,
1714158436.511369,control,-0.002114871317102071,0.6691986068000356,0,,,
1714158436.5278745,control,-0.002114871317102071,0.6691986068000356,0,,,
1714158436.5549448,control,-0.002114871317102071,0.6691986068000356,0,,,
1714158436.559985,control,-0.002114871317102071,0.6691986068000356,0,,,
1714158436.5751417,control,-0.002114871317102071,0.6691986068000356,0,,,
1714158436.6026554,control,-0.002114871317102071,0.6691986068000356,0,,,
1714158436.6076565,control,-0.002114871317102071,0.6691986068000356,0,,,
1714158436.623685,control,-0.002114871317102071,0.6691986068000356,0,,,
1714158436.639874,control,-0.002114871317102071,0.6691986068000356,0,,,
1714158436.6557927,control,-0.002114871317102071,0.6691986068000356,0,,,
1714158436.6826704,control,-0.002114871317102071,0.6691986068000356,0,,,
1714158436.6876695,control,-0.002114871317102071,0.6691986068000356,0,,,
1714158436.7039487,control,-0.002114871317102071,0.6691986068000356,0,,,
1714158436.7189188,control,-0.002114871317102071,0.6691986068000356,0,,,
1714158436.735587,control,-0.002114871317102071,0.6691986068000356,0,,,
1714158436.7640293,control,-0.002114871317102071,0.6655944260979495,0,,,
1714158436.7673962,control,-0.002114871317102071,0.6655944260979495,0,,,
1714158436.7834492,control,-0.002114871317102071,0.6655944260979495,0,,,
1714158436.7994747,control,-0.002114871317102071,0.6655944260979495,0,,,
1714158436.8150022,control,-0.002114871317102071,0.6655944260979495,0,,,
1714158436.8315935,control,-0.002114871317102071,0.6655944260979495,0,,,
1714158436.847763,control,-0.002114871317102071,0.6619767717918214,0,,,
1714158436.863054,control,-0.002114871317102071,0.6619767717918214,0,,,
1714158436.890672,control,-0.002114871317102071,0.6547006367625572,0,,,
1714158436.8956754,control,-0.002114871317102071,0.6547006367625572,0,,,
1714158436.9234498,control,-0.002114871317102071,0.6510419503633152,0,,,
1714158436.9390037,control,-0.002114871317102071,0.6473693789729349,0,,,
1714158436.954528,control,-0.002114871317102071,0.6399821568419266,0,,,
1714158436.9700692,control,-0.002114871317102071,0.6325381093670247,0,,,
1714158436.985924,control,-0.002114871317102071,0.6287945016040417,0,,,
1714158437.002503,control,-0.002114871317102071,0.6212635577612914,0,,,
1714158437.0187602,control,-0.002114871317102071,0.6212487913919204,0,,,
1714158437.0450666,control,-0.002114871317102071,0.6135395950806545,0,,,
1714158437.0509176,control,-0.002114871317102071,0.6135395950806545,0,,,
1714158437.0664325,control,-0.002114871317102071,0.6018594116313,0,,,
1714158437.092882,control,-0.002114871317102071,0.5900365268213725,0,,,
1714158437.098882,control,-0.002114871317102071,0.5860632474304233,0,,,
1714158437.1140182,control,-0.002114871317102071,0.5820735872329712,0,,,
1714158437.141953,control,-0.002114871317102071,0.5780519701692741,0,,,
1714158437.146953,control,-0.002114871317102071,0.5740290754661139,0,,,
1714158437.1626635,control,-0.002114871317102071,0.5659327652817765,0,,,
1714158437.1775649,control,-0.002114871317102071,0.5659327652817765,0,,,
1714158437.1945927,control,-0.002114871317102071,0.5659327652817765,0,,,
1714158437.2218568,control,-0.002114871317102071,0.5659327652817765,0,,,
1714158437.2268593,control,-0.002114871317102071,0.5659327652817765,0,,,
1714158437.2426374,control,-0.002114871317102071,0.5659327652817765,0,,,
1714158437.2587328,control,-0.002114871317102071,0.5659327652817765,0,,,
1714158437.274349,control,-0.002114871317102071,0.5659327652817765,0,,,
1714158437.292963,control,-0.002114871317102071,0.5659327652817765,0,,,
1714158437.3203018,control,-0.002114871317102071,0.5659327652817765,0,,,
1714158437.3243048,control,-0.002114871317102071,0.5659327652817765,0,,,
1714158437.3438196,control,-0.002114871317102071,0.5659327652817765,0,,,
1714158437.370357,control,-0.002114871317102071,0.5659327652817765,0,,,
1714158437.374359,control,-0.002114871317102071,0.5659327652817765,0,,,
1714158437.3900478,control,-0.002114871317102071,0.5659327652817765,0,,,
1714158437.4180148,control,-0.002114871317102071,0.5659327652817765,0,,,
1714158437.4225278,control,-0.002114871317102071,0.5659327652817765,0,,,
1714158437.438608,control,-0.002114871317102071,0.5659327652817765,0,,,
1714158437.467652,control,-0.002114871317102071,0.5659327652817765,0,,,
1714158437.4736676,control,-0.002114871317102071,0.5659327652817765,0,,,
1714158437.4897776,control,-0.002114871317102071,0.5659327652817765,0,,,
1714158437.5170987,control,-0.002114871317102071,0.5659327652817765,0,,,
1714158437.5216153,control,-0.002114871317102071,0.5659327652817765,0,,,
1714158437.5373971,control,-0.002114871317102071,0.5659327652817765,0,,,
1714158437.5534198,control,-0.002114871317102071,0.5659327652817765,0,,,
1714158437.569441,control,-0.002114871317102071,0.5659327652817765,0,,,
1714158437.5859592,control,-0.002114871317102071,0.5659327652817765,0,,,
1714158437.6122227,control,-0.002114871317102071,0.5618590664357805,0,,,
1714158437.6172225,control,-0.002114871317102071,0.5618590664357805,0,,,
1714158437.6334214,control,-0.002114871317102071,0.5618590664357805,0,,,
1714158437.6599588,control,-0.002114871317102071,0.5577681465172044,0,,,
1714158437.66546,control,-0.002114871317102071,0.5577681465172044,0,,,
1714158437.6811655,control,-0.002114871317102071,0.5536598593076767,0,,,
1714158437.6976738,control,-0.002114871317102071,0.5536598593076767,0,,,
1714158437.713714,control,-0.002114871317102071,0.5495340567186471,0,,,
1714158437.7398028,control,-0.002114871317102071,0.5453905887593558,0,,,
1714158437.7452178,control,-0.002114871317102071,0.5453905887593558,0,,,
1714158437.7612388,control,-0.002114871317102071,0.5453905887593558,0,,,
1714158437.788775,control,-0.002114871317102071,0.5412293035041142,0,,,
1714158437.8034098,control,-0.002114871317102071,0.5370500470588806,0,,,
1714158437.819681,control,-0.002114871317102071,0.5328526635271087,0,,,
1714158437.8353655,control,-0.002114871317102071,0.5328526635271087,0,,,
1714158437.8631258,control,-0.002114871317102071,0.5201501606714016,0,,,
1714158437.867128,control,-0.002114871317102071,0.5201501606714016,0,,,
1714158437.883616,control,-0.002114871317102071,0.5158786685404688,0,,,
1714158437.9097273,control,-0.002114871317102071,0.5115882385542678,0,,,
1714158437.9157271,control,-0.002114871317102071,0.5115882385542678,0,,,
1714158437.9317484,control,-0.002114871317102071,0.5115882385542678,0,,,
1714158437.9477742,control,-0.002114871317102071,0.5072787020410159,0,,,
1714158437.963797,control,-0.002114871317102071,0.5072787020410159,0,,,
1714158437.9900196,control,-0.002114871317102071,0.5072787020410159,0,,,
1714158438.0070496,control,-0.002114871317102071,0.5072787020410159,0,,,
1714158438.0220788,control,-0.002114871317102071,0.5072787020410159,0,,,
1714158438.0390525,control,-0.002114871317102071,0.5072787020410159,0,,,
1714158438.054154,control,-0.002114871317102071,0.5072787020410159,0,,,
1714158438.0702138,control,-0.002114871317102071,0.5072787020410159,0,,,
1714158438.0867279,control,-0.002114871317102071,0.5072787020410159,0,,,
1714158438.1147764,control,-0.002114871317102071,0.5072787020410159,0,,,
1714158438.1297975,control,-0.002114871317102071,0.49860162338794534,0,,,
1714158438.1459033,control,-0.002114871317102071,0.49860162338794534,0,,,
1714158438.161923,control,-0.002114871317102071,0.489829122983541,0,,,
1714158438.1899047,control,-0.002114871317102071,0.4720763407922195,0,,,
1714158438.1950738,control,-0.002114871317102071,0.4720763407922195,0,,,
1714158438.2107754,control,-0.002014162879963678,0.4675867878551181,0,,,
1714158438.226819,control,-0.0018463155745150268,0.4585447094584232,0,,,
1714158438.242156,control,-0.0017120378055124094,0.45399178927524453,0,,,
1714158438.2586677,control,-0.001678468373097412,0.44941734729060534,0,,,
1714158438.2740886,control,-0.0014770518554011664,0.44020307724909813,0,,,
1714158438.301732,control,-0.0008728029560042987,0.4167760944304628,0,,,
1714158438.3067327,control,-0.0006713868196281389,0.4120218652667349,0,,,
1714158438.3229444,control,-0.00013427734455702498,0.3878751353819707,0,,,
1714158438.3500028,control,0.0011413579174894652,0.3581037903641062,0,,,
1714158438.3650806,control,0.0021484408055803617,0.32738739779694637,0,,,
1714158438.3918757,control,0.0035247948708893497,0.22311767941076277,0,,,
1714158438.3958743,control,0.0038269229789062425,0.19370895502001195,0,,,
1714158438.4118474,control,0.004632601499030024,0.10624112294099608,0,,,
1714158438.4289832,control,0.0051697237890583995,0,0,,,
1714158438.4446511,control,0.00567327863914869,0,0,,,
1714158438.4734604,control,0.005975412913838536,0,0,,,
1714158438.4774601,control,0.005975412913838536,0,0,,,
1714158438.4935012,control,0.005975412913838536,0,0,,,
1714158438.5095193,control,0.005975412913838536,0,0,,,
1714158438.5250404,control,0.005975412913838536,0,0,,,
1714158438.5421834,control,0.005975412913838536,0,0,,,
1714158438.557704,control,0.005975412913838536,0,0,,,
1714158438.5732582,control,0.005975412913838536,0,0,,,
1714158438.588784,control,0.005975412913838536,0,0,,,
1714158438.6066158,control,0.005975412913838536,0,0,,,
1714158438.63458,control,0.005975412913838536,0,0,,,
1714158438.6390939,control,0.005975412913838536,0,0,,,
1714158438.65462,control,0.005975412913838536,0,0,,,
1714158438.681556,control,0.00563970822912632,0,0,,,
1714158438.6865573,control,0.005538997075023627,0,0,,,
1714158438.7130861,control,0.0054718563681688355,0,0,,,
1714158438.718591,control,0.0054718563681688355,0,0,,,
1714158438.73467,control,0.0054718563681688355,0,0,,,
1714158438.7613678,control,0.0054718563681688355,0,0,,,
1714158438.7767975,control,0.0054718563681688355,0,0,,,
1714158438.792825,control,0.0054718563681688355,0,0,,,
1714158438.8087132,control,0.0054718563681688355,0,0,,,
1714158438.8351557,control,0.0054718563681688355,0,0,,,
1714158438.840671,control,0.0054718563681688355,0,0,,,
1714158438.8566158,control,0.0054718563681688355,0,0,,,
1714158438.8830733,control,0.0054718563681688355,0,0,,,
1714158438.8880684,control,0.0054718563681688355,0,0,,,
1714158438.9048524,control,0.0054718563681688355,0,0,,,
1714158438.920883,control,0.0054718563681688355,0,0,,,
1714158438.9369116,control,0.0054718563681688355,0,0,,,
1714158438.9650962,control,0.0054718563681688355,0,0,,,
1714158438.982116,control,0.0054718563681688355,0,0,,,
1714158439.0086033,control,0.0054718563681688355,0,0,,,
1714158439.0238252,control,0.0054718563681688355,0,0,,,
1714158439.0507703,control,0.0054718563681688355,0,0,,,
1714158439.0552857,control,0.0054718563681688355,0,0,,,
1714158439.0818217,control,0.005371145400193799,0,0,,,
1714158439.0872414,control,0.005371145400193799,0,0,,,
1714158439.1031415,control,0.005371145400193799,0,0,,,
1714158439.1306791,control,0.005371145400193799,0,0.038558918418420296,,,
1714158439.1351836,control,0.005371145400193799,0,0.04554416707003428,,,
1714158439.1512117,control,0.005371145400193799,0,0.08642881173187633,,,
1714158439.1774673,control,0.005371145400193799,0,0.1571726969083409,,,
1714158439.1829836,control,0.005371145400193799,0,0.1756249451049423,,,
1714158439.1996927,control,0.005371145400193799,0,0.19370895502001195,,,
1714158439.225989,control,0.005337575101848025,0,0.21146121529928097,,,
1714158439.2311249,control,0.005337575101848025,0,0.21146121529928097,,,
1714158439.2476408,control,0.005337575101848025,0,0.21730699790394592,,,
1714158439.2638094,control,0.005337575101848025,0,0.23463540773444125,,,
1714158439.279829,control,0.005136153561758657,0,0.2516589786340906,,,
1714158439.3073466,control,0.004632601499030024,0,0.32217185588316455,,,
1714158439.3233674,control,0.0043304714053845495,0,0.3631297208009001,,,
1714158439.3499184,control,0.00399477222615726,0,0.40724416412853137,,,
1714158439.3551948,control,0.003692643736813869,0,0.44482117906924334,,,
1714158439.3707597,control,0.0034912251218399463,0,0.4765451614784295,,,
1714158439.3977895,control,0.003189097725403821,0,0.5412293035041142,,,
1714158439.4023025,control,0.003121958384979857,0,0.5495340567186471,,,
1714158439.4186087,control,0.0029876797879627216,0,0.5979344774002306,,,
1714158439.4472744,control,0.0028869709111684796,0,0.6325381093670247,,,
1714158439.461789,control,0.0028534012986847026,0,0.6583455427660694,,,
1714158439.4776332,control,0.002685553331218348,0,0.6763669462430741,,,
1714158439.5065444,control,0.0021820102989008315,0,0.7584844315286202,,,
1714158439.5110695,control,0.0021484408055803617,0,0.7650231145123714,,,
1714158439.5269578,control,0.0018463155745150268,0.017267888969123124,0.8280891649972684,,,
1714158439.5531788,control,0.0013427742445255475,0.03152288171889883,0.8581450404398726,,,
1714158439.5673914,control,0.0011413579174894652,0.0028277482171481516,0.8640457989658082,,,
1714158439.5834146,control,0.0008056642368174378,0,0.8640457989658082,,,
1714158439.5994391,control,0.0005035400816204615,0,0.8640457989658082,,,
1714158439.6273293,control,0.00016784668126372065,0,0.8757404597163612,,,
1714158439.6422374,control,0.0,0,0.8757404597163612,,,
1714158439.6693609,control,-0.00033569337198476566,0,0.8757404597163612,,,
1714158439.6733696,control,-0.00033569337198476566,0,0.8757404597163612,,,
1714158439.689853,control,-0.0004699707377261985,0,0.8757404597163612,,,
1714158439.717896,control,-0.0005371094266496038,0,0.8757404597163612,,,
1714158439.7329206,control,-0.0005371094266496038,0,0.8757404597163612,,,
1714158439.759976,control,-0.0005371094266496038,0,0.8757404597163612,,,
1714158439.764323,control,-0.0005371094266496038,0,0.8757404597163612,,,
1714158439.7918665,control,-0.0005371094266496038,0,0.8699107950992607,,,
1714158439.8073761,control,-0.0005371094266496038,0,0.8699107950992607,,,
1714158439.8229833,control,-0.0005371094266496038,0,0.8669827402182236,,,
1714158439.8411212,control,-0.0005371094266496038,0,0.8640457989658082,,,
1714158439.857746,control,-0.0005371094266496038,0,0.8581450404398726,,,
1714158439.8840888,control,-0.0005371094266496038,0,0.855181113467795,,,
1714158439.889089,control,-0.0005371094266496038,0,0.855181113467795,,,
1714158439.9046614,control,-0.0005371094266496038,0,0.855181113467795,,,
1714158439.9206846,control,-0.0005371094266496038,0,0.855181113467795,,,
1714158439.9366994,control,-0.0005371094266496038,0,0.8581450404398726,,,
1714158439.964237,control,-0.0005371094266496038,0,0.8581450404398726,,,
1714158439.9787507,control,-0.0005371094266496038,0,0.8581450404398726,,,
1714158440.005781,control,-0.0005371094266496038,0,0.8581450404398726,,,
1714158440.0108857,control,-0.0005371094266496038,0,0.8581450404398726,,,
1714158440.0269432,control,-0.0005371094266496038,0,0.8581450404398726,,,
1714158440.0420175,control,-0.0005371094266496038,0,0.8581450404398726,,,
1714158440.0575373,control,-0.0005371094266496038,0,0.8581450404398726,,,
1714158440.074575,control,-0.0005371094266496038,0,0.8581450404398726,,,
1714158440.101835,control,-0.0005371094266496038,0,0.8581450404398726,,,
1714158440.1175175,control,-0.0005371094266496038,0,0.8581450404398726,,,
1714158440.1442232,control,-0.0005371094266496038,0,0.8581450404398726,,,
1714158440.1497347,control,-0.0005371094266496038,0,0.8581450404398726,,,
1714158440.165178,control,-0.0005371094266496038,0,0.8581450404398726,,,
1714158440.1812117,control,-0.0005371094266496038,0,0.8581450404398726,,,
1714158440.1978612,control,-0.0005371094266496038,0,0.8581450404398726,,,
1714158440.2138636,control,-0.0005371094266496038,0,0.8581450404398726,,,
1714158440.2294912,control,-0.0005371094266496038,0,0.8581450404398726,,,
1714158440.245417,control,-0.0005371094266496038,0,0.8581450404398726,,,
1714158440.26126,control,-0.0005371094266496038,0,0.8581450404398726,,,
1714158440.2775407,control,-0.0005371094266496038,0,0.855181113467795,,,
1714158440.2931137,control,-0.0005371094266496038,0,0.855181113467795,,,
1714158440.320522,control,-0.0005371094266496038,0,0.855181113467795,,,
1714158440.33511,control,-0.0005371094266496038,0,0.855181113467795,,,
1714158440.3509839,control,-0.0005371094266496038,0,0.855181113467795,,,
1714158440.367059,control,-0.0005371094266496038,0,0.855181113467795,,,
1714158440.394087,control,-0.0005371094266496038,0,0.8492258860594036,,,
1714158440.4096823,control,-0.0005371094266496038,0,0.8492258860594036,,,
1714158440.4353027,control,-0.0005371094266496038,0,0.8462344728585406,,,
1714158440.4408557,control,-0.0005371094266496038,0,0.8462344728585406,,,
1714158440.457801,control,-0.0005371094266496038,0,0.8402237616098741,,,
1714158440.4738252,control,-0.0005371094266496038,0,0.8372043476161997,,,
1714158440.4929972,control,-0.0005371094266496038,0,0.831137108933895,,,
1714158440.507519,control,-0.0005371094266496038,0,0.831137108933895,,,
1714158440.5245488,control,-0.0005371094266496038,0,0.831137108933895,,,
1714158440.540656,control,-0.0005371094266496038,0,0.8280891649972684,,,
1714158440.5671763,control,-0.0005371094266496038,0,0.8095971106044709,,,
1714158440.5874906,control,-0.0005371094266496038,0,0.8002168620402252,,,
1714158440.6035187,control,-0.0005371094266496038,0,0.815800474153604,,,
1714158440.6198637,control,-0.0005371094266496038,0,0.8002168620402252,,,
1714158440.635535,control,-0.0005371094266496038,0,0.797069797803618,,,
1714158440.6641119,control,-0.0005371094266496038,0,0.8095971106044709,,,
1714158440.6671116,control,-0.0005371094266496038,0,0.8095971106044709,,,
1714158440.6837094,control,-0.0005371094266496038,0,0.8095971106044709,,,
1714158440.712246,control,-0.0005371094266496038,0,0.8095971106044709,,,
1714158440.727764,control,-0.0005371094266496038,0,0.8095971106044709,,,
1714158440.7439582,control,-0.0005371094266496038,0,0.8095971106044709,,,
1714158440.7589796,control,-0.0005371094266496038,0,0.8095971106044709,,,
1714158440.775499,control,-0.0005371094266496038,0,0.8188873073925946,,,
1714158440.8030312,control,-0.0005371094266496038,0,0.8188873073925946,,,
1714158440.8190444,control,-0.0005371094266496038,0,0.8188873073925946,,,
1714158440.847118,control,-0.0005371094266496038,0,0.8188873073925946,,,
1714158440.852631,control,-0.0005371094266496038,0,0.8188873073925946,,,
1714158440.8678906,control,-0.0005371094266496038,0,0.8188873073925946,,,
1714158440.8977475,control,-0.0005371094266496038,0,0.8188873073925946,,,
1714158440.9162836,control,-0.0005371094266496038,0,0.815800474153604,,,
1714158440.9440231,control,-0.0005371094266496038,0,0.7843781876965453,,,
1714158440.9598725,control,-0.0005371094266496038,0,0.7843781876965453,,,
1714158440.9879005,control,-0.0005371094266496038,0,0.7811791057752773,,,
