timestamp,event_type,steering,throttle,brake,instruction,user_response,button_pressed
1714159219.3764584,control,0.0,0.6212635577612914,0.6212635577612914,,,
1714159219.380463,control,0.0,0.6212635577612914,0.6212635577612914,,,
1714159219.394975,control,0.0,0.6212635577612914,0.6212635577612914,,,
1714159219.4117417,control,0.0,0.6212635577612914,0.6212635577612914,,,
1714159219.4277554,control,0.0,0.6212635577612914,0.6212635577612914,,,
1714159219.4433007,control,0.0,0.6212635577612914,0.6212635577612914,,,
1714159219.4593196,control,0.0,0.6212635577612914,0.6212635577612914,,,
1714159219.474844,control,0.0,0.6212635577612914,0.6212635577612914,,,
1714159219.4909081,control,0.0,0.6212635577612914,0.6212635577612914,,,
1714159219.5189714,control,0.0,0.6212635577612914,0.6212635577612914,,,
1714159219.5264747,control,0.0,0.6212635577612914,0.6212635577612914,,,
1714159219.5525482,control,0.0,0.6212635577612914,0.6212635577612914,,,
1714159219.5589752,control,0.0,0.6212635577612914,0.6212635577612914,,,
1714159219.57393,control,0.0,0.6212635577612914,0.6212635577612914,,,
1714159219.6017811,control,0.0,0.6212635577612914,0.6212635577612914,,,
1714159219.607285,control,0.0,0.6212635577612914,0.6212635577612914,,,
1714159219.6218078,control,0.0,0.6212635577612914,0.6212635577612914,,,
1714159219.63845,control,0.0,0.6212635577612914,0.6212635577612914,,,
1714159219.654486,control,0.0,0.6212635577612914,0.6212635577612914,,,
1714159219.682112,control,0.0,0.6212635577612914,0.6212635577612914,,,
1714159219.6866167,control,0.0,0.6212635577612914,0.6212635577612914,,,
1714159219.702644,control,0.0,0.6212635577612914,0.6212635577612914,,,
1714159219.718385,control,0.0,0.6212635577612914,0.6212635577612914,,,
1714159219.7336938,control,0.0,0.6212635577612914,0.6212635577612914,,,
1714159219.7503734,control,0.0,0.6212635577612914,0.6212635577612914,,,
1714159219.7658055,control,0.0,0.6212635577612914,0.6212635577612914,,,
1714159219.7927365,control,0.0,0.6212635577612914,0.6212635577612914,,,
1714159219.7986405,control,0.0,0.6212635577612914,0.6212635577612914,,,
1714159219.8140306,control,0.0,0.6212635577612914,0.6212635577612914,,,
1714159219.830058,control,0.0,0.6212635577612914,0.6212635577612914,,,
1714159219.8457887,control,0.0,0.6212635577612914,0.6212635577612914,,,
1714159219.8617764,control,0.0,0.6212635577612914,0.6212635577612914,,,
1714159219.8786955,control,0.0,0.6212635577612914,0.6212635577612914,,,
1714159219.893943,control,0.0,0.6212635577612914,0.6212635577612914,,,
1714159219.9210334,control,0.0,0.6212635577612914,0.6212635577612914,,,
1714159219.9285436,control,0.0,0.6212635577612914,0.6212635577612914,,,
1714159219.9440587,control,0.0,0.6212635577612914,0.6212635577612914,,,
1714159219.960084,control,0.0,0.6212635577612914,0.6212635577612914,,,
1714159219.976478,control,0.0,0.6212635577612914,0.6212635577612914,,,
1714159220.003289,control,0.0,0.6212635577612914,0.6212635577612914,,,
1714159220.0088084,control,0.0,0.6212635577612914,0.6212635577612914,,,
1714159220.0238676,control,0.0,0.6212635577612914,0.6212635577612914,,,
1714159220.0398984,control,0.0,0.6212635577612914,0.6212635577612914,,,
1714159220.0563984,control,0.0,0.6212635577612914,0.6212635577612914,,,
1714159220.0716786,control,0.0,0.6212635577612914,0.6212635577612914,,,
1714159220.087608,control,0.0,0.6212635577612914,0.6212635577612914,,,
1714159220.1035888,control,0.0,0.6212635577612914,0.6212635577612914,,,
1714159220.1309984,control,0.0,0.6212635577612914,0.6212635577612914,,,
1714159220.1349978,control,0.0,0.6212635577612914,0.6212635577612914,,,
1714159220.151791,control,0.0,0.6212635577612914,0.6212635577612914,,,
1714159220.1678116,control,0.0,0.6212635577612914,0.6212635577612914,,,
1714159220.1837153,control,0.0,0.6212635577612914,0.6212635577612914,,,
1714159220.2003195,control,0.0,0.6212635577612914,0.6212635577612914,,,
1714159220.2180197,control,0.0,0.6212635577612914,0.6212635577612914,,,
1714159220.232687,control,0.0,0.6212635577612914,0.6212635577612914,,,
1714159220.2488835,control,0.0,0.6212635577612914,0.6212635577612914,,,
1714159220.2653983,control,0.0,0.6212635577612914,0.6212635577612914,,,
1714159220.280637,control,0.0,0.6212635577612914,0.6212635577612914,,,
1714159220.2971873,control,0.0,0.6212635577612914,0.6212635577612914,,,
1714159220.3242252,control,0.0,0.6212635577612914,0.6212635577612914,,,
1714159220.3297377,control,0.0,0.6212635577612914,0.6212635577612914,,,
1714159220.3452544,control,0.0,0.6212635577612914,0.6212635577612914,,,
1714159220.3612893,control,0.0,0.6212635577612914,0.6212635577612914,,,
1714159220.3773038,control,0.0,0.6212635577612914,0.6212635577612914,,,
1714159220.4033985,control,0.0,0.6212635577612914,0.6212635577612914,,,
1714159220.4089167,control,0.0,0.6212635577612914,0.6212635577612914,,,
1714159220.436449,control,0.0,0.6212635577612914,0.6212635577612914,,,
1714159220.441958,control,0.0,0.6212635577612914,0.6212635577612914,,,
1714159220.4574685,control,0.0,0.6212635577612914,0.6212635577612914,,,
1714159220.474015,control,0.0,0.6212635577612914,0.6212635577612914,,,
1714159220.4900458,control,0.0,0.6212635577612914,0.6212635577612914,,,
1714159220.5050619,control,0.0,0.6212635577612914,0.6212635577612914,,,
1714159220.5217564,control,0.0,0.6212635577612914,0.6212635577612914,,,
1714159220.5374365,control,0.0,0.6212635577612914,0.6212635577612914,,,
1714159220.5535097,control,0.0,0.6212635577612914,0.6212635577612914,,,
1714159220.5697129,control,0.0,0.6212635577612914,0.6212635577612914,,,
1714159220.5865338,control,0.0,0.6212635577612914,0.6212635577612914,,,
1714159220.6015627,control,0.0,0.6212635577612914,0.6212635577612914,,,
1714159220.6298707,control,0.0,0.6212635577612914,0.6212635577612914,,,
1714159220.6348724,control,0.0,0.6212635577612914,0.6212635577612914,,,
1714159220.6499295,control,0.0,0.6212635577612914,0.6212635577612914,,,
1714159220.665446,control,0.0,0.6212635577612914,0.6212635577612914,,,
1714159220.682008,control,0.0,0.6212635577612914,0.6212635577612914,,,
1714159220.6977618,control,0.0,0.6212635577612914,0.6212635577612914,,,
1714159220.713785,control,0.0,0.6212635577612914,0.6212635577612914,,,
1714159220.7409348,control,0.0,0.6212635577612914,0.6212635577612914,,,
1714159220.7464364,control,0.0,0.6212635577612914,0.6212635577612914,,,
1714159220.7727783,control,0.0,0.6212635577612914,0.6212635577612914,,,
1714159220.7779236,control,0.0,0.6212635577612914,0.6212635577612914,,,
1714159220.7934387,control,0.0,0.6212635577612914,0.6212635577612914,,,
1714159220.8098576,control,0.0,0.6212635577612914,0.6212635577612914,,,
1714159220.8250859,control,0.0,0.6212635577612914,0.6212635577612914,,,
1714159220.8526533,control,0.0,0.6212635577612914,0.6212635577612914,,,
1714159220.857916,control,0.0,0.6212635577612914,0.6212635577612914,,,
1714159220.8843918,control,0.0,0.6212635577612914,0.6212635577612914,,,
1714159220.8906212,control,0.0,0.6212635577612914,0.6212635577612914,,,
1714159220.9051251,control,0.0,0.6212635577612914,0.6212635577612914,,,
1714159220.9221718,control,0.0,0.6212635577612914,0.6212635577612914,,,
1714159220.9382033,control,0.0,0.6212635577612914,0.6212635577612914,,,
1714159220.9652421,control,0.0,0.6212635577612914,0.6212635577612914,,,
1714159220.969755,control,0.0,0.6212635577612914,0.6212635577612914,,,
1714159220.98565,control,0.0,0.6212635577612914,0.6212635577612914,,,
1714159221.0014098,control,0.0,0.6212635577612914,0.6212635577612914,,,
1714159221.0174305,control,0.0,0.6212635577612914,0.6212635577612914,,,
1714159221.0336971,control,0.0,0.6212635577612914,0.6212635577612914,,,
1714159221.0497406,control,0.0,0.6212635577612914,0.6212635577612914,,,
1714159221.0774186,control,0.0,0.6212635577612914,0.6212635577612914,,,
1714159221.0834155,control,0.0,0.6212635577612914,0.6212635577612914,,,
1714159221.0984333,control,0.0,0.6212635577612914,0.6212635577612914,,,
1714159221.1145773,control,0.0,0.6212635577612914,0.6212635577612914,,,
1714159221.130646,control,0.0,0.6212635577612914,0.6212635577612914,,,
1714159221.1583793,control,0.0,0.6212635577612914,0.6212635577612914,,,
1714159221.1633792,control,0.0,0.6212635577612914,0.6212635577612914,,,
1714159221.1903188,control,0.0,0.6212635577612914,0.6212635577612914,,,
1714159221.1969018,control,0.0,0.6212635577612914,0.6212635577612914,,,
1714159221.212523,control,0.0,0.6212635577612914,0.6212635577612914,,,
1714159221.2285836,control,0.0,0.6212635577612914,0.6212635577612914,,,
1714159221.2450964,control,0.0,0.6212635577612914,0.6212635577612914,,,
1714159221.2719352,control,0.0,0.6212635577612914,0.6212635577612914,,,
1714159221.2796214,control,0.0,0.6212635577612914,0.6212635577612914,,,
1714159221.2951288,control,0.0,0.6212635577612914,0.6212635577612914,,,
1714159221.3234103,control,0.0,0.6212635577612914,0.6212635577612914,,,
1714159221.327919,control,0.0,0.6212635577612914,0.6212635577612914,,,
1714159221.3434436,control,0.0,0.6212635577612914,0.6212635577612914,,,
1714159221.3594737,control,0.0,0.6212635577612914,0.6212635577612914,,,
1714159221.3749845,control,0.0,0.6212635577612914,0.6212635577612914,,,
1714159221.3919904,control,0.0,0.6212635577612914,0.6212635577612914,,,
1714159221.4075184,control,0.0,0.6212635577612914,0.6212635577612914,,,
1714159221.43576,control,0.0,0.6212635577612914,0.6212635577612914,,,
1714159221.4422808,control,0.0,0.6212635577612914,0.6212635577612914,,,
1714159221.4576285,control,0.0,0.6212635577612914,0.6212635577612914,,,
1714159221.4741464,control,0.0,0.6212635577612914,0.6212635577612914,,,
1714159221.490369,control,0.0,0.6212635577612914,0.6212635577612914,,,
1714159221.505447,control,-0.012320569638477915,0,0,,,
1714159221.5217762,control,-0.012320569638477915,0,0,,,
1714159221.5487854,control,-0.012320569638477915,0,0,,,
1714159221.5537853,control,-0.012320569638477915,0,0,,,
1714159221.581346,control,-0.012320569638477915,0,0,,,
1714159221.586847,control,-0.012320569638477915,0,0,,,
1714159221.6017325,control,-0.012320569638477915,0,0,,,
1714159221.618094,control,-0.012320569638477915,0,0,,,
1714159221.6336048,control,-0.012320569638477915,0,0,,,
1714159221.6607046,control,-0.012320569638477915,0,0,,,
1714159221.6657062,control,-0.012320569638477915,0,0,,,
1714159221.694151,control,-0.012320569638477915,0,0,,,
1714159221.6991708,control,-0.012320569638477915,0,0,,,
1714159221.7146864,control,-0.012320569638477915,0,0,,,
1714159221.7304077,control,-0.012320569638477915,0,0,,,
1714159221.7464285,control,-0.012320569638477915,0,0,,,
1714159221.7625678,control,-0.012320569638477915,0,0,,,
1714159221.7792952,control,-0.012320569638477915,0,0,,,
1714159221.8053684,control,-0.012320569638477915,0,0,,,
1714159221.8110554,control,-0.012320569638477915,0,0,,,
1714159221.82656,control,-0.012320569638477915,0,0,,,
1714159221.8432755,control,-0.012320569638477915,0,0,,,
1714159221.8592937,control,-0.012320569638477915,0,0,,,
1714159221.8748176,control,-0.012320569638477915,0,0,,,
1714159221.89107,control,-0.012320569638477915,0,0,,,
1714159221.9095995,control,-0.012320569638477915,0,0,,,
1714159221.925112,control,-0.012320569638477915,0,0,,,
1714159221.9411323,control,-0.012320569638477915,0,0,,,
1714159221.957148,control,-0.012320569638477915,0,0,,,
1714159221.972661,control,-0.012320569638477915,0,0,,,
1714159221.9887617,control,-0.012320569638477915,0,0,,,
1714159222.0048356,control,-0.012320569638477915,0,0,,,
1714159222.032484,control,-0.012320569638477915,0,0,,,
1714159222.0375996,control,-0.012320569638477915,0,0,,,
1714159222.0536332,control,-0.012320569638477915,0,0,,,
1714159222.070603,control,-0.012320569638477915,0,0,,,
1714159222.085025,control,-0.012320569638477915,0,0,,,
1714159222.112829,control,-0.012320569638477915,0,0,,,
1714159222.1175027,control,-0.012320569638477915,0,0,,,
1714159222.1340177,control,-0.012320569638477915,0,0,,,
1714159222.1499517,control,-0.012320569638477915,0,0,,,
1714159222.1654174,control,-0.012320569638477915,0,0,,,
1714159222.196493,control,-0.012320569638477915,0,0,,,
1714159222.2015142,control,-0.012320569638477915,0,0,,,
1714159222.217544,control,-0.012320569638477915,0,0,,,
1714159222.234053,control,-0.012320569638477915,0,0,,,
1714159222.250075,control,-0.012320569638477915,0,0,,,
1714159222.277632,control,-0.012320569638477915,0,0,,,
1714159222.283632,control,-0.012320569638477915,0,0,,,
1714159222.2995453,control,-0.012320569638477915,0,0,,,
1714159222.327097,control,-0.012320569638477915,0,0,,,
1714159222.332142,control,-0.012320569638477915,0,0,,,
1714159222.3482049,control,-0.012320569638477915,0,0,,,
1714159222.3637083,control,-0.012320569638477915,0,0,,,
1714159222.3798296,control,-0.012320569638477915,0,0,,,
1714159222.395361,control,-0.012320569638477915,0,0,,,
1714159222.422843,control,-0.012320569638477915,0,0,,,
1714159222.4273574,control,-0.012320569638477915,0,0,,,
1714159222.4442363,control,-0.012320569638477915,0,0,,,
1714159222.4599164,control,-0.012320569638477915,0,0,,,
1714159222.4754515,control,-0.012320569638477915,0,0,,,
1714159222.4920843,control,-0.012320569638477915,0,0,,,
1714159222.5081532,control,-0.012320569638477915,0,0,,,
1714159222.5236628,control,-0.012320569638477915,0,0,,,
1714159222.5517151,control,-0.012320569638477915,0,0,,,
1714159222.557471,control,-0.012320569638477915,0,0,,,
1714159222.5729873,control,-0.012320569638477915,0,0,,,
1714159222.5896423,control,-0.012320569638477915,0,0,,,
1714159222.6046655,control,-0.012320569638477915,0,0,,,
1714159222.6210372,control,-0.012320569638477915,0,0,,,
1714159222.6365223,control,-0.012320569638477915,0,0,,,
1714159222.6649654,control,-0.012320569638477915,0,0,,,
1714159222.6724823,control,-0.012320569638477915,0,0,,,
1714159222.6874743,control,-0.012320569638477915,0,0,,,
1714159222.7036474,control,-0.012320569638477915,0,0,,,
1714159222.719986,control,-0.012320569638477915,0,0,,,
1714159222.7465713,control,-0.012320569638477915,0,0,,,
1714159222.752582,control,-0.012320569638477915,0,0,,,
1714159222.7676122,control,-0.012320569638477915,0,0,,,
1714159222.7835474,control,-0.012320569638477915,0,0,,,
1714159222.800247,control,-0.012320569638477915,0,0,,,
1714159222.8274767,control,-0.012320569638477915,0,0,,,
1714159222.8324668,control,-0.012320569638477915,0,0,,,
1714159222.8480866,control,-0.012320569638477915,0,0,,,
1714159222.8636231,control,-0.012320569638477915,0,0,,,
1714159222.8794336,control,-0.012320569638477915,0,0,,,
1714159222.8949351,control,-0.012320569638477915,0,0,,,
1714159222.9116466,control,-0.012320569638477915,0,0,,,
1714159222.939914,control,-0.012320569638477915,0,0,,,
1714159222.9439135,control,-0.012320569638477915,0,0,,,
1714159222.9596133,control,-0.012320569638477915,0,0,,,
1714159222.9756515,control,-0.012320569638477915,0,0,,,
1714159222.9921758,control,-0.012320569638477915,0,0,,,
1714159223.0077174,control,-0.012320569638477915,0,0,,,
1714159223.0239406,control,-0.012320569638477915,0,0,,,
1714159223.05013,control,-0.012320569638477915,0,0,,,
1714159223.0566373,control,-0.012320569638477915,0,0,,,
1714159223.0722172,control,-0.012320569638477915,0,0,,,
1714159223.088988,control,-0.012320569638477915,0,0,,,
1714159223.1035433,control,-0.012320569638477915,0,0,,,
1714159223.1196067,control,-0.012320569638477915,0,0,,,
1714159223.1365702,control,-0.012320569638477915,0,0,,,
1714159223.1533058,control,-0.012320569638477915,0,0,,,
1714159223.1684976,control,-0.012320569638477915,0,0,,,
1714159223.1850102,control,-0.012320569638477915,0,0,,,
1714159223.2120254,control,-0.012320569638477915,0,0,,,
1714159223.2179148,control,-0.012320569638477915,0,0,,,
1714159223.2442253,control,-0.012320569638477915,0,0,,,
1714159223.249737,control,-0.012320569638477915,0,0,,,
1714159223.2644055,control,-0.012320569638477915,0,0,,,
1714159223.2804406,control,-0.012320569638477915,0,0,,,
1714159223.2967854,control,-0.012320569638477915,0,0,,,
1714159223.312592,control,-0.012320569638477915,0,0,,,
1714159223.3286319,control,-0.012320569638477915,0,0,,,
1714159223.3447692,control,-0.012320569638477915,0,0,,,
1714159223.3730128,control,-0.012320569638477915,0,0,,,
1714159223.3785388,control,-0.012320569638477915,0,0,,,
1714159223.393736,control,-0.012320569638477915,0,0,,,
1714159223.4123085,control,-0.012320569638477915,0,0,,,
1714159223.4281342,control,-0.012320569638477915,0,0,,,
1714159223.4456437,control,-0.012320569638477915,0,0,,,
1714159223.460682,control,-0.012320569638477915,0,0,,,
1714159223.4767134,control,-0.012320569638477915,0,0,,,
1714159223.4932835,control,-0.012320569638477915,0,0,,,
1714159223.519962,control,-0.012320569638477915,0,0,,,
1714159223.5249612,control,-0.012320569638477915,0,0,,,
1714159223.540568,control,-0.012320569638477915,0,0,,,
1714159223.5569022,control,-0.012320569638477915,0,0,,,
1714159223.5729194,control,-0.012320569638477915,0,0,,,
1714159223.5889442,control,-0.012320569638477915,0,0,,,
1714159223.6049783,control,-0.012320569638477915,0,0,,,
1714159223.631706,control,-0.012320569638477915,0,0,,,
1714159223.6367056,control,-0.012320569638477915,0,0,,,
1714159223.652851,control,-0.012320569638477915,0,0,,,
1714159223.6688952,control,-0.012320569638477915,0,0,,,
1714159223.6846364,control,-0.012320569638477915,0,0,,,
1714159223.7119799,control,-0.012320569638477915,0,0,,,
1714159223.7186856,control,-0.012320569638477915,0,0,,,
1714159223.7342114,control,-0.012320569638477915,0,0,,,
1714159223.7499506,control,-0.012320569638477915,0,0,,,
1714159223.7664666,control,-0.012320569638477915,0,0,,,
1714159223.792758,control,-0.012320569638477915,0,0,,,
1714159223.7982657,control,-0.012320569638477915,0,0,,,
1714159223.8134754,control,-0.012320569638477915,0,0,,,
1714159223.8302937,control,-0.012320569638477915,0,0,,,
1714159223.845442,control,-0.012320569638477915,0,0,,,
1714159223.8614898,control,-0.012320569638477915,0,0,,,
1714159223.877507,control,-0.012320569638477915,0,0,,,
1714159223.9053657,control,-0.012320569638477915,0,0,,,
1714159223.910877,control,-0.012320569638477915,0,0,,,
1714159223.925491,control,-0.012320569638477915,0,0,,,
1714159223.9428566,control,-0.012320569638477915,0,0,,,
1714159223.958448,control,-0.012320569638477915,0,0,,,
1714159223.9749458,control,-0.012320569638477915,0,0,,,
1714159223.990546,control,-0.012320569638477915,0,0,,,
1714159224.0174801,control,-0.012320569638477915,0,0,,,
1714159224.0225048,control,-0.012320569638477915,0,0,,,
1714159224.0506117,control,-0.012320569638477915,0,0,,,
1714159224.0566008,control,-0.012320569638477915,0,0,,,
1714159224.0715168,control,-0.012320569638477915,0,0,,,
1714159224.0875907,control,-0.012320569638477915,0,0,,,
1714159224.103541,control,-0.012320569638477915,0,0,,,
1714159224.1311245,control,-0.012320569638477915,0,0,,,
1714159224.1366327,control,-0.012320569638477915,0,0,,,
1714159224.1521459,control,-0.012320569638477915,0,0,,,
1714159224.1678324,control,-0.012320569638477915,0,0,,,
1714159224.1843786,control,-0.012320569638477915,0,0,,,
1714159224.2121575,control,-0.012320569638477915,0,0,,,
1714159224.2166603,control,-0.012320569638477915,0,0,,,
1714159224.2439785,control,-0.012320569638477915,0,0,,,
1714159224.249497,control,-0.012320569638477915,0,0,,,
1714159224.2647536,control,-0.012320569638477915,0,0,,,
1714159224.2815714,control,-0.012320569638477915,0,0,,,
1714159224.2964535,control,-0.012320569638477915,0,0,,,
1714159224.3125217,control,-0.012320569638477915,0,0,,,
1714159224.3285642,control,-0.012320569638477915,0,0,,,
1714159224.3450751,control,-0.012320569638477915,0,0,,,
1714159224.360559,control,-0.012320569638477915,0,0,,,
1714159224.3884392,control,-0.012320569638477915,0,0,,,
1714159224.3934474,control,-0.012320569638477915,0,0,,,
1714159224.4204237,control,-0.012320569638477915,0,0,,,
1714159224.4244266,control,-0.012320569638477915,0,0,,,
1714159224.4410143,control,-0.012320569638477915,0,0,,,
1714159224.4566932,control,-0.012320569638477915,0,0,,,
1714159224.4733305,control,-0.012320569638477915,0,0,,,
1714159224.489075,control,-0.012320569638477915,0,0,,,
1714159224.505096,control,-0.012320569638477915,0,0,,,
1714159224.531168,control,-0.012320569638477915,0,0,,,
1714159224.536732,control,-0.012320569638477915,0,0,,,
1714159224.5525222,control,-0.012320569638477915,0,0,,,
1714159224.568547,control,-0.012320569638477915,0,0,,,
1714159224.5850544,control,-0.012320569638477915,0,0,,,
1714159224.6011465,control,-0.012320569638477915,0,0,,,
1714159224.6168494,control,-0.012320569638477915,0,0,,,
1714159224.6438878,control,-0.012320569638477915,0,0,,,
1714159224.651407,control,-0.012320569638477915,0,0,,,
1714159224.6664307,control,-0.012320569638477915,0,0,,,
1714159224.682908,control,-0.012320569638477915,0,0,,,
1714159224.6989322,control,-0.012320569638477915,0,0,,,
1714159224.714955,control,-0.012320569638477915,0,0,,,
1714159224.7305949,control,-0.012320569638477915,0,0,,,
1714159224.75813,control,-0.012320569638477915,0,0,,,
1714159224.7631347,control,-0.012320569638477915,0,0,,,
1714159224.779157,control,-0.012320569638477915,0,0,,,
1714159224.7946725,control,-0.012320569638477915,0,0,,,
1714159224.810865,control,-0.012320569638477915,0,0,,,
1714159224.8266149,control,-0.012320569638477915,0.017267888969123124,0,,,
1714159224.8431308,control,-0.012320569638477915,0.024407952688081158,0,,,
1714159224.870678,control,-0.012320569638477915,0.059365196501131035,0,,,
1714159224.875678,control,-0.012320569638477915,0.06620238700686021,0,,,
1714159224.901598,control,-0.012320569638477915,0.09968198510957893,0,,,
1714159224.908494,control,-0.012320569638477915,0.10624112294099608,0,,,
1714159224.923726,control,-0.012320569638477915,0.12565593800669816,0,,,
1714159224.939738,control,-0.012320569638477915,0.1446888937210118,0,,,
1714159224.9558084,control,-0.012320569638477915,0.16335472196081402,0,,,
1714159224.982724,control,-0.012320569638477915,0.20557990494151435,0,,,
1714159224.9902427,control,-0.012320569638477915,0.20557990494151435,0,,,
1714159225.0045927,control,-0.012320569638477915,0.21146121529928097,0,,,
1714159225.020631,control,-0.012320569638477915,0.21730699790394592,0,,,
1714159225.0371673,control,-0.012320569638477915,0.21730699790394592,0,,,
1714159225.065671,control,-0.012320569638477915,0.22311767941076277,0,,,
1714159225.0707574,control,-0.012320569638477915,0.22311767941076277,0,,,
1714159225.097281,control,-0.012320569638477915,0.23463540773444125,0,,,
1714159225.1026099,control,-0.012320569638477915,0.24034327038298509,0,,,
1714159225.1174908,control,-0.012320569638477915,0.24601766394382407,0,,,
1714159225.1338003,control,-0.012320569638477915,0.27390101881707407,0,,,
1714159225.149379,control,-0.012320569638477915,0.32217185588316455,0,,,
1714159225.1777737,control,-0.012320569638477915,0.4024427580997696,0,,,
1714159225.1827793,control,-0.012320569638477915,0.42150708111974344,0,,,
1714159225.197803,control,-0.012320569638477915,0.4630763094034289,0,,,
1714159225.2138264,control,-0.012320569638477915,0.5115882385542678,0,,,
1714159225.2293925,control,-0.012320569638477915,0.5495340567186471,0,,,
1714159225.244909,control,-0.012320569638477915,0.5820735872329712,0,,,
1714159225.261717,control,-0.012320569638477915,0.6018594116313,0,,,
1714159225.2780967,control,-0.012320569638477915,0.6135395950806545,0,,,
1714159225.2936041,control,-0.012320569638477915,0.6174018699744762,0,,,
1714159225.3102639,control,-0.012320569638477915,0.6212487913919204,0,,,
1714159225.3398087,control,-0.012320569638477915,0.6212635577612914,0,,,
1714159225.3438044,control,-0.012320569638477915,0.6212635577612914,0,,,
1714159225.3598359,control,-0.012320569638477915,0.6212635577612914,0,,,
1714159225.3758824,control,-0.012320569638477915,0.6212635577612914,0,,,
1714159225.402688,control,-0.012320569638477915,0.6212635577612914,0,,,
1714159225.4082005,control,-0.012320569638477915,0.6287945016040417,0,,,
1714159225.4237084,control,-0.012320569638477915,0.6362672908600797,0,,,
1714159225.4397376,control,-0.012320569638477915,0.6510419503633152,0,,,
1714159225.4560614,control,-0.012320569638477915,0.6655944260979495,0,,,
1714159225.482684,control,-0.012320569638477915,0.6975587726447999,0,,,
1714159225.4878504,control,-0.012320569638477915,0.7079831614159194,0,,,
1714159225.5033712,control,-0.012320569638477915,0.7182964533433602,0,,,
1714159225.5199134,control,-0.012320569638477915,0.7251114209440678,0,,,
1714159225.5357714,control,-0.012320569638477915,0.731878731038892,0,,,
1714159225.5516138,control,-0.012320569638477915,0.7419417825477788,0,,,
1714159225.5679495,control,-0.012320569638477915,0.751901267366327,0,,,
1714159225.5834746,control,-0.012320569638477915,0.7715179133871491,0,,,
1714159225.600348,control,-0.012320569638477915,0.7811791057752773,0,,,
1714159225.6153677,control,-0.012320569638477915,0.8002168620402252,0,,,
1714159225.6320918,control,-0.012320569638477915,0.815800474153604,0,,,
1714159225.6476996,control,-0.012320569638477915,0.8341754831720845,0,,,
1714159225.6637344,control,-0.012320569638477915,0.8432337839429888,0,,,
1714159225.6797173,control,-0.012320569638477915,0.8522080807149879,0,,,
1714159225.7067723,control,-0.012320569638477915,0.8640457989658082,0,,,
1714159225.711819,control,-0.012320569638477915,0.8669827402182236,0,,,
1714159225.7278411,control,-0.012320569638477915,0.8699107950992607,0,,,
1714159225.744144,control,-0.012320569638477915,0.8728300172221422,0,,,
1714159225.7596867,control,-0.012320569638477915,0.8815352159528578,0,,,
1714159225.7750325,control,-0.012320569638477915,0.8844196335872573,0,,,
1714159225.7917206,control,-0.012320569638477915,0.8901628041524876,0,,,
1714159225.818606,control,-0.012320569638477915,0.8958720915083908,0,,,
1714159225.823611,control,-0.012320569638477915,0.8958720915083908,0,,,
1714159225.8401206,control,-0.012320569638477915,0.9043733590638868,0,,,
1714159225.85563,control,-0.012320569638477915,0.9099996621209874,0,,,
1714159225.8716514,control,-0.012320569638477915,0.9183782547191166,0,,,
1714159225.8874946,control,-0.012320569638477915,0.9239239512708277,0,,,
1714159225.9036708,control,-0.012320569638477915,0.9294380482405054,0,,,
1714159225.932518,control,-0.012320569638477915,0.9403728696690115,0,,,
1714159225.9376135,control,-0.012320569638477915,0.9403728696690115,0,,,
1714159225.9650607,control,-0.012320569638477915,0.9484936563441855,0,,,
1714159225.9695544,control,-0.012320569638477915,0.9511855117652559,0,,,
1714159225.9964733,control,-0.012320569638477915,0.9592164408425293,0,,,
1714159226.0016134,control,-0.012320569638477915,0.9592164408425293,0,,,
1714159226.0176473,control,-0.012320569638477915,0.9592164408425293,0,,,
1714159226.0341678,control,-0.012320569638477915,0.9592164408425293,0,,,
1714159226.0501926,control,-0.012320569638477915,0.9592164408425293,0,,,
1714159226.0657089,control,-0.012320569638477915,0.9592164408425293,0,,,
1714159226.081746,control,-0.012320569638477915,0.9592164408425293,0,,,
1714159226.0977669,control,-0.012320569638477915,0.9618786747083273,0,,,
1714159226.113791,control,-0.012320569638477915,0.9618786747083273,0,,,
1714159226.1298888,control,-0.012320569638477915,0.9618786747083273,0,,,
1714159226.1457927,control,-0.012320569638477915,0.9618786747083273,0,,,
1714159226.1618145,control,-0.012320569638477915,0.9618786747083273,0,,,
1714159226.1778827,control,-0.012320569638477915,0.9618786747083273,0,,,
1714159226.1933882,control,-0.012320569638477915,0.9618786747083273,0,,,
1714159226.209524,control,-0.012320569638477915,0.9618786747083273,0,,,
1714159226.2250347,control,-0.012320569638477915,0.9618786747083273,0,,,
1714159226.2415938,control,-0.012320569638477915,0.9618786747083273,0,,,
1714159226.2686515,control,-0.012320569638477915,0.9618786747083273,0,,,
1714159226.2736583,control,-0.012320569638477915,0.9618786747083273,0,,,
1714159226.2900884,control,-0.012320569638477915,0.9618786747083273,0,,,
1714159226.3051114,control,-0.012320569638477915,0.9618786747083273,0,,,
1714159226.3221405,control,-0.012320569638477915,0.9618786747083273,0,,,
1714159226.3381755,control,-0.012320569638477915,0.9618786747083273,0,,,
1714159226.3536973,control,-0.012320569638477915,0.9618786747083273,0,,,
1714159226.3695889,control,-0.012320569638477915,0.9618786747083273,0,,,
1714159226.3851058,control,-0.012320569638477915,0.9618786747083273,0,,,
1714159226.4021263,control,-0.012320569638477915,0.9618786747083273,0,,,
1714159226.4176133,control,-0.012320569638477915,0.9618786747083273,0,,,
1714159226.4336333,control,-0.012320569638477915,0.9618786747083273,0,,,
1714159226.4607158,control,-0.012320569638477915,0.9618786747083273,0,,,
1714159226.4667168,control,-0.012320569638477915,0.9618786747083273,0,,,
1714159226.481745,control,-0.012320569638477915,0.9618786747083273,0,,,
1714159226.4977658,control,-0.012320569638477915,0.9618786747083273,0,,,
1714159226.51379,control,-0.012320569638477915,0.9645336047683365,0,,,
1714159226.529816,control,-0.012320569638477915,0.9645336047683365,0,,,
1714159226.5456283,control,-0.012320569638477915,0.9645336047683365,0,,,
1714159226.5616503,control,-0.012320569638477915,0.9645336047683365,0,,,
1714159226.5781586,control,-0.012320569638477915,0.9645336047683365,0,,,
1714159226.5936418,control,-0.012320569638477915,0.9645336047683365,0,,,
1714159226.6108625,control,-0.012320569638477915,0.9645336047683365,0,,,
1714159226.6269999,control,-0.012320569638477915,0.9645336047683365,0,,,
1714159226.6425455,control,-0.012320569638477915,0.9645336047683365,0,,,
1714159226.65896,control,-0.012320569638477915,0.9645336047683365,0,,,
1714159226.6865103,control,-0.012320569638477915,0.9645336047683365,0,,,
1714159226.691681,control,-0.012320569638477915,0.9645336047683365,0,,,
1714159226.7067316,control,-0.012320569638477915,0.9645336047683365,0,,,
1714159226.7225647,control,-0.012320569638477915,0.9645336047683365,0,,,
1714159226.7390087,control,-0.012320569638477915,0.9645336047683365,0,,,
1714159226.7545154,control,-0.012320569638477915,0.9645336047683365,0,,,
1714159226.7711804,control,-0.012320569638477915,0.9645336047683365,0,,,
1714159226.7866886,control,-0.012320569638477915,0.9645336047683365,0,,,
1714159226.8031297,control,-0.012320569638477915,0.9645336047683365,0,,,
1714159226.8294687,control,-0.012320569638477915,0.9645336047683365,0,,,
1714159226.8354657,control,-0.012320569638477915,0.9645336047683365,0,,,
1714159226.8511136,control,-0.012320569638477915,0.9645336047683365,0,,,
1714159226.866628,control,-0.012320569638477915,0.9671812709887372,0,,,
1714159226.8829749,control,-0.012320569638477915,0.9698217130085646,0,,,
1714159226.9105093,control,-0.012320569638477915,0.9777000854222132,0,,,
1714159226.9155102,control,-0.012320569638477915,0.9777000854222132,0,,,
1714159226.9317412,control,-0.012320569638477915,0.9803120206108048,0,,,
1714159226.9475908,control,-0.012320569638477915,0.985514836368376,0,,,
1714159226.9639122,control,-0.012320569638477915,0.9881057921326963,0,,,
1714159226.9800692,control,-0.012320569638477915,0.9906898294488262,0,,,
1714159226.995434,control,-0.012320569638477915,0.9906898294488262,0,,,
1714159227.024853,control,-0.012320569638477915,0.9932669851660886,0,,,
1714159227.0297158,control,-0.012320569638477915,0.9932669851660886,0,,,
1714159227.0551155,control,-0.012320569638477915,0.9932669851660886,0,,,
1714159227.0616302,control,-0.012320569638477915,0.9932669851660886,0,,,
1714159227.0772276,control,-0.012320569638477915,0.9932669851660886,0,,,
1714159227.0931091,control,-0.012320569638477915,0.9932669851660886,0,,,
1714159227.108652,control,-0.012320569638477915,0.9958372958401867,0,,,
1714159227.135657,control,-0.012320569638477915,0.9958372958401867,0,,,
1714159227.140742,control,-0.012320569638477915,0.9958372958401867,0,,,
1714159227.167487,control,-0.012320569638477915,0.9958372958401867,0,,,
1714159227.1724823,control,-0.012320569638477915,0.9958372958401867,0,,,
1714159227.188686,control,-0.012320569638477915,0.9958372958401867,0,,,
1714159227.2043884,control,-0.012320569638477915,0.9958372958401867,0,,,
1714159227.2204075,control,-0.012320569638477915,0.9958372958401867,0,,,
1714159227.2364197,control,-0.012320569638477915,0.9958372958401867,0,,,
1714159227.252949,control,-0.012320569638477915,0.9958372958401867,0,,,
1714159227.2684984,control,-0.012320569638477915,0.9958372958401867,0,,,
1714159227.2850146,control,-0.012320569638477915,0.9958372958401867,0,,,
1714159227.3010488,control,-0.012320569638477915,0.9958372958401867,0,,,
1714159227.316582,control,-0.012320569638477915,0.9906898294488262,0,,,
1714159227.3331625,control,0.0022155797971391412,0.9906898294488262,0,,,
1714159227.3491821,control,0.004061911987552971,0.9881057921326963,0,,,
1714159227.366713,control,0.00631111894533788,0.9881057921326963,0,,,
1714159227.3817546,control,0.00862753338794044,0.9906898294488262,0,,,
1714159227.4088182,control,0.013059213989880152,0.9906898294488262,0,,,
1714159227.4138114,control,0.013629994341886274,0.9906898294488262,0,,,
1714159227.4413624,control,0.016853402032893795,0.9906898294488262,0,,,
1714159227.4475267,control,0.0172227719280338,0.9906898294488262,0,,,
1714159227.4747672,control,0.01796152591377834,0.9906898294488262,0,,,
1714159227.4795554,control,0.01796152591377834,0.9906898294488262,0,,,
1714159227.4950705,control,0.01796152591377834,0.9906898294488262,0,,,
1714159227.511079,control,0.01796152591377834,0.9906898294488262,0,,,
1714159227.5265887,control,0.01796152591377834,0.9881057921326963,0,,,
1714159227.5548358,control,0.01796152591377834,0.9932669851660886,0,,,
1714159227.5605123,control,0.01796152591377834,0.9932669851660886,0,,,
1714159227.5868235,control,0.01796152591377834,0.9906898294488262,0,,,
1714159227.5921645,control,0.01796152591377834,0.9906898294488262,0,,,
1714159227.6182792,control,0.01796152591377834,0.9881057921326963,0,,,
1714159227.624274,control,0.01796152591377834,0.9881057921326963,0,,,
1714159227.6398954,control,0.01796152591377834,0.9881057921326963,0,,,
1714159227.6555376,control,0.01796152591377834,0.9881057921326963,0,,,
1714159227.6723294,control,0.01796152591377834,0.9881057921326963,0,,,
1714159227.6868427,control,0.01796152591377834,0.9881057921326963,0,,,
1714159227.703964,control,0.01796152591377834,0.9881057921326963,0,,,
1714159227.7195704,control,0.01796152591377834,0.9881057921326963,0,,,
1714159227.735091,control,0.01796152591377834,0.9881057921326963,0,,,
1714159227.7519045,control,0.01796152591377834,0.9906898294488262,0,,,
1714159227.7679622,control,0.01796152591377834,0.9906898294488262,0,,,
1714159227.7834744,control,0.01796152591377834,0.9906898294488262,0,,,
1714159227.8105295,control,0.01796152591377834,0.9906898294488262,0,,,
1714159227.8165302,control,0.01796152591377834,0.9906898294488262,0,,,
1714159227.8320653,control,0.01796152591377834,0.9906898294488262,0,,,
1714159227.8481367,control,0.01796152591377834,0.9906898294488262,0,,,
1714159227.863647,control,0.01796152591377834,0.9906898294488262,0,,,
1714159227.8917062,control,0.01796152591377834,0.9906898294488262,0,,,
1714159227.89687,control,0.01796152591377834,0.9906898294488262,0,,,
1714159227.9237185,control,0.01796152591377834,0.9906898294488262,0,,,
1714159227.9278655,control,0.01796152591377834,0.9906898294488262,0,,,
1714159227.9440656,control,0.01796152591377834,0.9906898294488262,0,,,
1714159227.959952,control,0.01796152591377834,0.9906898294488262,0,,,
1714159227.975805,control,0.01796152591377834,0.9906898294488262,0,,,
1714159227.9918349,control,0.01796152591377834,0.9906898294488262,0,,,
1714159228.00776,control,0.01796152591377834,0.9906898294488262,0,,,
1714159228.0339575,control,0.01776004564421928,0.9906898294488262,0,,,
1714159228.0394642,control,0.017726465739875467,0.9906898294488262,0,,,
1714159228.0556617,control,0.017256351240864463,0.9906898294488262,0,,,
1714159228.0720634,control,0.0163833015294947,0.9906898294488262,0,,,
1714159228.087717,control,0.015140927356189686,0.9906898294488262,0,,,
1714159228.1035886,control,0.013764296877851828,0.9906898294488262,0,,,
1714159228.1200569,control,0.012219846468183512,0.9906898294488262,0,,,
1714159228.1485558,control,0.009433263194380818,0.9906898294488262,0,,,
1714159228.153556,control,0.008728248979734673,0.9906898294488262,0,,,
1714159228.1687143,control,0.006915393437479781,0.9906898294488262,0,,,
1714159228.185582,control,0.005136153561758657,0.9906898294488262,0,,,
1714159228.2005975,control,0.0033905159216008154,0.9906898294488262,0,,,
1714159228.216624,control,0.001577760098247444,0.9906898294488262,0,,,
1714159228.2333176,control,-0.00020141601834870932,0.9881057921326963,0,,,
1714159228.2595165,control,-0.002954110155731828,0.9803120206108048,0,,,
1714159228.264523,control,-0.0035583646278830364,0.9777000854222132,0,,,
1714159228.2808402,control,-0.005203294028009981,0.9881057921326963,0,,,
1714159228.2966897,control,-0.006713968067439579,0.9906898294488262,0,,,
1714159228.3127222,control,-0.00798967195313854,0.9906898294488262,0,,,
1714159228.3293607,control,-0.009063968909287307,0.9906898294488262,0,,,
1714159228.3554084,control,-0.01023900524807629,0.9906898294488262,0,,,
1714159228.360923,control,-0.01040686981441008,0.9906898294488262,0,,,
1714159228.3884802,control,-0.010574734967182631,0.9906898294488262,0,,,
1714159228.3944714,control,-0.010574734967182631,0.9906898294488262,0,,,
1714159228.420623,control,-0.010574734967182631,0.9906898294488262,0,,,
1714159228.4256244,control,-0.010574734967182631,0.9906898294488262,0,,,
1714159228.4416604,control,-0.010541161889258872,0.9906898294488262,0,,,
1714159228.457995,control,-0.010541161889258872,0.9906898294488262,0,,,
1714159228.4735057,control,-0.010541161889258872,0.9906898294488262,0,,,
1714159228.4900725,control,-0.010440442797746724,0.9906898294488262,0,,,
1714159228.5050995,control,-0.010440442797746724,0.9906898294488262,0,,,
1714159228.5344405,control,-0.010272578114882094,0.9906898294488262,0,,,
1714159228.538949,control,-0.010272578114882094,0.9906898294488262,0,,,
1714159228.5664947,control,-0.01023900524807629,0.9906898294488262,0,,,
1714159228.5717242,control,-0.01023900524807629,0.9906898294488262,0,,,
1714159228.5868342,control,-0.01023900524807629,0.9906898294488262,0,,,
1714159228.6028707,control,-0.01023900524807629,0.9906898294488262,0,,,
1714159228.6186182,control,-0.01023900524807629,0.9906898294488262,0,,,
1714159228.635002,control,-0.01023900524807629,0.9906898294488262,0,,,
1714159228.6506677,control,-0.01023900524807629,0.9906898294488262,0,,,
1714159228.6664867,control,-0.01023900524807629,0.9906898294488262,0,,,
1714159228.6825843,control,-0.01023900524807629,0.9906898294488262,0,,,
1714159228.6986067,control,-0.01023900524807629,0.9906898294488262,0,,,
1714159228.7156403,control,-0.01023900524807629,0.985514836368376,0,,,
1714159228.73067,control,-0.01023900524807629,0.985514836368376,0,,,
1714159228.7465825,control,-0.01023900524807629,0.985514836368376,0,,,
1714159228.7626805,control,-0.01023900524807629,0.985514836368376,0,,,
1714159228.7900267,control,-0.01023900524807629,0.985514836368376,0,,,
1714159228.7950249,control,-0.01023900524807629,0.985514836368376,0,,,
1714159228.8106039,control,-0.010037568529253325,0.985514836368376,0,,,
1714159228.8268664,control,-0.009735414973094575,0.985514836368376,0,,,
1714159228.842476,control,-0.00939969088184581,0.985514836368376,0,,,
1714159228.8585012,control,-0.009030396825645558,0.985514836368376,0,,,
1714159228.8748035,control,-0.00856038975743469,0.985514836368376,0,,,
1714159228.901556,control,-0.007620386758707335,0.985514836368376,0,,,
1714159228.907568,control,-0.007318245877265359,0.985514836368376,0,,,
1714159228.9230883,control,-0.0067811097961152965,0.985514836368376,0,,,
1714159228.9504228,control,-0.005773989946239581,0.985514836368376,0,,,
1714159228.9544222,control,-0.005572567447139456,0.985514836368376,0,,,
1714159228.9819784,control,-0.004901162290555939,0.985514836368376,0,,,
1714159228.9864836,control,-0.004834022027908725,0.985514836368376,0,,,
1714159229.0024571,control,-0.004666171560632133,0.985514836368376,0,,,
1714159229.0185308,control,-0.004565461407073694,0.985514836368376,0,,,
1714159229.035048,control,-0.004565461407073694,0.985514836368376,0,,,
1714159229.0503337,control,-0.004565461407073694,0.985514836368376,0,,,
1714159229.066699,control,-0.004565461407073694,0.985514836368376,0,,,
1714159229.0832403,control,-0.004565461407073694,0.985514836368376,0,,,
1714159229.099259,control,-0.004565461407073694,0.985514836368376,0,,,
1714159229.125398,control,-0.004565461407073694,0.985514836368376,0,,,
1714159229.1309173,control,-0.004565461407073694,0.985514836368376,0,,,
1714159229.1465206,control,-0.004565461407073694,0.9881057921326963,0,,,
1714159229.1625254,control,-0.004565461407073694,0.9881057921326963,0,,,
1714159229.1784494,control,-0.004565461407073694,0.9881057921326963,0,,,
1714159229.1949656,control,-0.004531891376568142,0.9881057921326963,0,,,
1714159229.211125,control,-0.004531891376568142,0.9881057921326963,0,,,
1714159229.2266529,control,-0.004531891376568142,0.9881057921326963,0,,,
1714159229.2425303,control,-0.004397611355931185,0.9906898294488262,0,,,
1714159229.2701423,control,-0.004397611355931185,0.9906898294488262,0,,,
1714159229.2751396,control,-0.004364041375739933,0.9906898294488262,0,,,
1714159229.2904239,control,-0.0043304714053845495,0.9906898294488262,0,,,
1714159229.30797,control,-0.0043304714053845495,0.9906898294488262,0,,,
1714159229.3234928,control,-0.0043304714053845495,0.9906898294488262,0,,,
1714159229.3506968,control,-0.004162621698497378,0.9906898294488262,0,,,
1714159229.3556993,control,-0.004162621698497378,0.9906898294488262,0,,,
1714159229.3717244,control,-0.0039612023590025825,0.9906898294488262,0,,,
1714159229.387748,control,-0.003692643736813869,0.9906898294488262,0,,,
1714159229.4028263,control,-0.0033569462035719245,0.9881057921326963,0,,,
1714159229.4200232,control,-0.003121958384979857,0.9881057921326963,0,,,
1714159229.4355361,control,-0.002685553331218348,0.9881057921326963,0,,,
1714159229.462521,control,-0.001947023944695216,0.9881057921326963,0,,,
1714159229.4680312,control,-0.0018127461262116592,0.9881057921326963,0,,,
1714159229.483548,control,-0.0014099130436080185,0.985514836368376,0,,,
1714159229.4997146,control,-0.0008728029560042987,0.985514836368376,0,,,
1714159229.5157406,control,-0.0004028320530396755,0.985514836368376,0,,,
1714159229.531558,control,0.00013427734455702498,0.985514836368376,0,,,
1714159229.5476077,control,0.0006378174693028928,0.985514836368376,0,,,
1714159229.5745509,control,0.0015106212662533923,0.985514836368376,0,,,
1714159229.579755,control,0.001644898944465358,0.985514836368376,0,,,
1714159229.595264,control,0.0021820102989008315,0.985514836368376,0,,,
1714159229.6119046,control,0.0025848446239767685,0.985514836368376,0,,,
1714159229.6277535,control,0.003054819072701254,0.985514836368376,0,,,
1714159229.6542864,control,0.0035583646278830364,0.985514836368376,0,,,
1714159229.6597984,control,0.003591934392896669,0.985514836368376,0,,,
1714159229.675821,control,0.0037262135346639107,0.985514836368376,0,,,
1714159229.6918635,control,0.003759783340912212,0.985514836368376,0,,,
1714159229.708081,control,0.003759783340912212,0.985514836368376,0,,,
1714159229.7366061,control,0.003759783340912212,0.985514836368376,0,,,
1714159229.74061,control,0.003759783340912212,0.985514836368376,0,,,
1714159229.7671409,control,0.003759783340912212,0.985514836368376,0,,,
1714159229.772148,control,0.003759783340912212,0.985514836368376,0,,,
1714159229.7881715,control,0.003759783340912212,0.985514836368376,0,,,
1714159229.817028,control,0.003759783340912212,0.985514836368376,0,,,
1714159229.8200366,control,0.003759783340912212,0.985514836368376,0,,,
1714159229.8465853,control,0.003759783340912212,0.985514836368376,0,,,
1714159229.8515937,control,0.003759783340912212,0.985514836368376,0,,,
1714159229.8787222,control,0.003759783340912212,0.985514836368376,0,,,
1714159229.8837225,control,0.003759783340912212,0.985514836368376,0,,,
1714159229.9098053,control,0.003759783340912212,0.985514836368376,0,,,
1714159229.915803,control,0.003759783340912212,0.985514836368376,0,,,
1714159229.931822,control,0.003759783340912212,0.985514836368376,0,,,
1714159229.9478593,control,0.003759783340912212,0.985514836368376,0,,,
1714159229.9639354,control,0.003759783340912212,0.985514836368376,0,,,
1714159229.979986,control,0.003759783340912212,0.985514836368376,0,,,
1714159229.9954984,control,0.003759783340912212,0.985514836368376,0,,,
1714159230.022089,control,0.003759783340912212,0.985514836368376,0,,,
1714159230.0276022,control,0.003759783340912212,0.985514836368376,0,,,
1714159230.0436316,control,0.003759783340912212,0.985514836368376,0,,,
1714159230.0596669,control,0.003759783340912212,0.9829169250097677,0,,,
1714159230.07584,control,0.003759783340912212,0.9803120206108048,0,,,
1714159230.0915594,control,0.003759783340912212,0.9645336047683365,0,,,
1714159230.1078067,control,0.003759783340912212,0.9906898294488262,0,,,
1714159230.123872,control,0.003759783340912212,0.9906898294488262,0,,,
1714159230.1398892,control,0.003759783340912212,0.9906898294488262,0,,,
1714159230.1552374,control,0.003759783340912212,0.9906898294488262,0,,,
1714159230.172221,control,0.003759783340912212,0.9906898294488262,0,,,
1714159230.1881704,control,0.003759783340912212,0.9906898294488262,0,,,
1714159230.2041652,control,0.003759783340912212,0.9906898294488262,0,,,
1714159230.219763,control,0.003759783340912212,0.9906898294488262,0,,,
1714159230.235765,control,0.003759783340912212,0.9881057921326963,0,,,
1714159230.25184,control,0.003759783340912212,0.9881057921326963,0,,,
1714159230.2790833,control,0.003759783340912212,0.985514836368376,0,,,
1714159230.2840831,control,0.003759783340912212,0.985514836368376,0,,,
1714159230.30011,control,0.003759783340912212,0.985514836368376,0,,,
1714159230.315835,control,0.003759783340912212,0.985514836368376,0,,,
1714159230.3319597,control,0.003759783340912212,0.985514836368376,0,,,
1714159230.3475006,control,0.003759783340912212,0.985514836368376,0,,,
1714159230.363472,control,0.003759783340912212,0.985514836368376,0,,,
1714159230.3795047,control,0.003759783340912212,0.985514836368376,0,,,
1714159230.4069943,control,0.0037262135346639107,0.985514836368376,0,,,
1714159230.4119987,control,0.0037262135346639107,0.985514836368376,0,,,
1714159230.4390638,control,0.0037262135346639107,0.985514836368376,0,,,
1714159230.4440618,control,0.0037262135346639107,0.985514836368376,0,,,
1714159230.4718127,control,0.0037262135346639107,0.985514836368376,0,,,
1714159230.4768105,control,0.003692643736813869,0.985514836368376,0,,,
1714159230.491786,control,0.003692643736813869,0.985514836368376,0,,,
1714159230.507345,control,0.003692643736813869,0.985514836368376,0,,,
1714159230.5238605,control,0.003692643736813869,0.985514836368376,0,,,
1714159230.5511825,control,0.003692643736813869,0.985514836368376,0,,,
1714159230.5551827,control,0.003692643736813869,0.985514836368376,0,,,
1714159230.5827298,control,0.0036255041660059107,0.985514836368376,0,,,
1714159230.5878472,control,0.0036255041660059107,0.985514836368376,0,,,
1714159230.6150408,control,0.0036255041660059107,0.985514836368376,0,,,
1714159230.6195624,control,0.0036255041660059107,0.985514836368376,0,,,
1714159230.6358066,control,0.0036255041660059107,0.985514836368376,0,,,
1714159230.6629586,control,0.0036255041660059107,0.985514836368376,0,,,
1714159230.6674676,control,0.0036255041660059107,0.985514836368376,0,,,
1714159230.6839802,control,0.0036255041660059107,0.985514836368376,0,,,
1714159230.7000034,control,0.0036255041660059107,0.985514836368376,0,,,
1714159230.7151172,control,0.003591934392896669,0.985514836368376,0,,,
1714159230.7317467,control,0.003591934392896669,0.985514836368376,0,,,
1714159230.747781,control,0.003591934392896669,0.985514836368376,0,,,
1714159230.7632937,control,0.003591934392896669,0.985514836368376,0,,,
1714159230.7798576,control,0.003591934392896669,0.985514836368376,0,,,
1714159230.8075995,control,0.0035583646278830364,0.985514836368376,0,,,
1714159230.8116002,control,0.0035583646278830364,0.985514836368376,0,,,
1714159230.8386407,control,0.0035583646278830364,0.985514836368376,0,,,
1714159230.8436363,control,0.0035583646278830364,0.985514836368376,0,,,
1714159230.8602285,control,0.0035583646278830364,0.985514836368376,0,,,
1714159230.8749444,control,0.0035583646278830364,0.985514836368376,0,,,
1714159230.9030602,control,0.0035583646278830364,0.985514836368376,0,,,
1714159230.9077494,control,0.0035583646278830364,0.985514836368376,0,,,
1714159230.9240599,control,0.0035583646278830364,0.985514836368376,0,,,
1714159230.9507246,control,0.0035583646278830364,0.985514836368376,0,,,
1714159230.9557247,control,0.0035583646278830364,0.985514836368376,0,,,
1714159230.9717531,control,0.0035583646278830364,0.985514836368376,0,,,
1714159230.9881852,control,0.0035583646278830364,0.985514836368376,0,,,
1714159231.0042028,control,0.0035583646278830364,0.985514836368376,0,,,
1714159231.0202281,control,0.0035583646278830364,0.985514836368376,0,,,
1714159231.0357382,control,0.0035583646278830364,0.985514836368376,0,,,
1714159231.0517666,control,0.0035583646278830364,0.985514836368376,0,,,
1714159231.0675297,control,0.0035583646278830364,0.985514836368376,0,,,
1714159231.094657,control,0.0035583646278830364,0.9829169250097677,0,,,
1714159231.0997915,control,0.0035583646278830364,0.9829169250097677,0,,,
1714159231.115839,control,0.0035583646278830364,0.9829169250097677,0,,,
1714159231.1329675,control,0.0035583646278830364,0.9829169250097677,0,,,
1714159231.1475441,control,0.0035583646278830364,0.9829169250097677,0,,,
1714159231.1750815,control,0.0035583646278830364,0.9829169250097677,0,,,
1714159231.1797173,control,0.0035583646278830364,0.9829169250097677,0,,,
1714159231.207209,control,0.0035583646278830364,0.9829169250097677,0,,,
1714159231.2115014,control,0.0035583646278830364,0.9829169250097677,0,,,
1714159231.227519,control,0.0035583646278830364,0.9829169250097677,0,,,
1714159231.2546587,control,0.0034576553806591644,0.9829169250097677,0,,,
1714159231.2596905,control,0.0034576553806591644,0.9829169250097677,0,,,
1714159231.2752132,control,0.0034576553806591644,0.9829169250097677,0,,,
1714159231.292119,control,0.0034576553806591644,0.9829169250097677,0,,,
1714159231.3191948,control,0.0034576553806591644,0.9829169250097677,0,,,
1714159231.3241866,control,0.0034576553806591644,0.9829169250097677,0,,,
1714159231.3392243,control,0.0034576553806591644,0.9829169250097677,0,,,
1714159231.3550234,control,0.0034576553806591644,0.9829169250097677,0,,,
1714159231.3716085,control,0.0034576553806591644,0.9829169250097677,0,,,
1714159231.3987212,control,0.0034576553806591644,0.9829169250097677,0,,,
1714159231.4042304,control,0.0034576553806591644,0.9829169250097677,0,,,
1714159231.4307106,control,0.0034240856472713414,0.9829169250097677,0,,,
1714159231.4357095,control,0.0034240856472713414,0.9829169250097677,0,,,
1714159231.4628818,control,0.0034240856472713414,0.9829169250097677,0,,,
1714159231.4680948,control,0.0034240856472713414,0.9829169250097677,0,,,
1714159231.4951022,control,0.0034240856472713414,0.9829169250097677,0,,,
1714159231.4996166,control,0.0034240856472713414,0.9829169250097677,0,,,
1714159231.5265875,control,0.0034240856472713414,0.9829169250097677,0,,,
1714159231.5316384,control,0.0034240856472713414,0.9829169250097677,0,,,
1714159231.558766,control,0.0034240856472713414,0.9829169250097677,0,,,
1714159231.5637708,control,0.0034240856472713414,0.9829169250097677,0,,,
1714159231.579427,control,0.0034240856472713414,0.9829169250097677,0,,,
1714159231.594944,control,0.0034240856472713414,0.9829169250097677,0,,,
1714159231.6119354,control,0.0034240856472713414,0.9829169250097677,0,,,
1714159231.627957,control,0.0034240856472713414,0.9803120206108048,0,,,
1714159231.6438737,control,0.0033905159216008154,0.9803120206108048,0,,,
1714159231.659918,control,0.003088388725360216,0.9803120206108048,0,,,
1714159231.6754253,control,0.0025512750666486497,0.9803120206108048,0,,,
1714159231.702619,control,0.0012084966820715434,0.9803120206108048,0,,,
1714159231.7076416,control,0.0008392335954651351,0.9803120206108048,0,,,
1714159231.7243545,control,-0.00033569337198476566,0.9803120206108048,0,,,
1714159231.7400239,control,-0.0016113295195405886,0.9803120206108048,0,,,
1714159231.7555304,control,-0.0029876797879627216,0.9803120206108048,0,,,
1714159231.7718835,control,-0.004531891376568142,0.9803120206108048,0,,,
1714159231.7876508,control,-0.005941842386010439,0.9777000854222132,0,,,
1714159231.8042014,control,-0.007318245877265359,0.9777000854222132,0,,,
1714159231.8201,control,-0.008493246204108244,0.9777000854222132,0,,,
1714159231.8354704,control,-0.00939969088184581,0.9777000854222132,0,,,
1714159231.8514981,control,-0.010171859583626278,0.9750810813882282,0,,,
1714159231.8681695,control,-0.010574734967182631,0.9750810813882282,0,,,
1714159231.8951893,control,-0.010742600715855432,0.9750810813882282,0,,,
1714159231.899698,control,-0.010742600715855432,0.9750810813882282,0,,,
1714159231.926667,control,-0.010742600715855432,0.9750810813882282,0,,,
1714159231.9318948,control,-0.010742600715855432,0.972454970143269,0,,,
1714159231.9477978,control,-0.010742600715855432,0.972454970143269,0,,,
1714159231.9638345,control,-0.010742600715855432,0.972454970143269,0,,,
1714159231.9798603,control,-0.010742600715855432,0.9698217130085646,0,,,
1714159231.9953692,control,-0.010742600715855432,0.9698217130085646,0,,,
1714159232.011902,control,-0.010742600715855432,0.9671812709887372,0,,,
1714159232.0279458,control,-0.010742600715855432,0.9671812709887372,0,,,
1714159232.043455,control,-0.010742600715855432,0.9645336047683365,0,,,
1714159232.0597043,control,-0.010742600715855432,0.9645336047683365,0,,,
1714159232.0759184,control,-0.010742600715855432,0.9645336047683365,0,,,
1714159232.1035535,control,-0.010742600715855432,0.9645336047683365,0,,,
1714159232.1077545,control,-0.010742600715855432,0.9645336047683365,0,,,
1714159232.1356468,control,-0.010742600715855432,0.9618786747083273,0,,,
1714159232.1397007,control,-0.010742600715855432,0.9618786747083273,0,,,
1714159232.1557562,control,-0.010742600715855432,0.9618786747083273,0,,,
1714159232.1714377,control,-0.010742600715855432,0.9618786747083273,0,,,
1714159232.1874518,control,-0.010742600715855432,0.9618786747083273,0,,,
1714159232.2029445,control,-0.010742600715855432,0.9592164408425293,0,,,
1714159232.2195833,control,-0.010742600715855432,0.9592164408425293,0,,,
1714159232.2481196,control,-0.010742600715855432,0.9592164408425293,0,,,
1714159232.2521238,control,-0.010742600715855432,0.9592164408425293,0,,,
1714159232.2794793,control,-0.010742600715855432,0.9592164408425293,0,,,
1714159232.283478,control,-0.010742600715855432,0.9592164408425293,0,,,
1714159232.299495,control,-0.010742600715855432,0.9592164408425293,0,,,
1714159232.3151617,control,-0.010641881194613876,0.9592164408425293,0,,,
1714159232.3322124,control,-0.010440442797746724,0.9592164408425293,0,,,
1714159232.3478227,control,-0.01040686981441008,0.9592164408425293,0,,,
1714159232.3633387,control,-0.01040686981441008,0.9592164408425293,0,,,
1714159232.379377,control,-0.01040686981441008,0.9592164408425293,0,,,
1714159232.3958805,control,-0.01040686981441008,0.9592164408425293,0,,,
1714159232.411416,control,-0.01040686981441008,0.9592164408425293,0,,,
1714159232.427437,control,-0.010373296854530987,0.9592164408425293,0,,,
1714159232.443958,control,-0.010037568529253325,0.9592164408425293,0,,,
1714159232.4595277,control,-0.009366118590497706,0.9592164408425293,0,,,
1714159232.47561,control,-0.008358959326571483,0.9592164408425293,0,,,
1714159232.4915142,control,-0.007116819368639883,0.9592164408425293,0,,,
1714159232.5184598,control,-0.0043304714053845495,0.9592164408425293,0,,,
1714159232.5234606,control,-0.0038269229789062425,0.9592164408425293,0,,,
1714159232.5510082,control,-0.00020141601834870932,0.9592164408425293,0,,,
1714159232.5550091,control,0.00033569337198476566,0.9592164408425293,0,,,
1714159232.5825546,control,0.004431181346033966,0.9592164408425293,0,,,
1714159232.5878897,control,0.005102583346035085,0.9592164408425293,0,,,
1714159232.6030092,control,0.007251103642551727,0.9592164408425293,0,,,
1714159232.6195655,control,0.00929897407105946,0.9592164408425293,0,,,
1714159232.6355822,control,0.011145481000561801,0.9592164408425293,0,,,
1714159232.652028,control,0.012589165986796897,0.9592164408425293,0,,,
1714159232.667749,control,0.013764296877851828,0.9592164408425293,0,,,
1714159232.6948116,control,0.014637275679045637,0.9592164408425293,0,,,
1714159232.6998928,control,0.014637275679045637,0.9592164408425293,0,,,
1714159232.7158532,control,0.014637275679045637,0.9592164408425293,0,,,
1714159232.7318847,control,0.014637275679045637,0.9592164408425293,0,,,
1714159232.7474174,control,0.014637275679045637,0.9592164408425293,0,,,
1714159232.7639432,control,0.014637275679045637,0.9592164408425293,0,,,
1714159232.7796912,control,0.014637275679045637,0.9592164408425293,0,,,
1714159232.8066638,control,0.014637275679045637,0.9592164408425293,0,,,
1714159232.8116856,control,0.014637275679045637,0.9592164408425293,0,,,
1714159232.8274117,control,0.014637275679045637,0.9592164408425293,0,,,
1714159232.8434281,control,0.014637275679045637,0.9592164408425293,0,,,
1714159232.8716576,control,0.014637275679045637,0.9592164408425293,0,,,
1714159232.8756592,control,0.014637275679045637,0.9592164408425293,0,,,
1714159232.9027374,control,0.014637275679045637,0.9592164408425293,0,,,
1714159232.9077668,control,0.014637275679045637,0.9592164408425293,0,,,
1714159232.9239347,control,0.014637275679045637,0.9592164408425293,0,,,
1714159232.939778,control,0.014670852223718873,0.9592164408425293,0,,,
1714159232.955811,control,0.014670852223718873,0.9592164408425293,0,,,
1714159232.97184,control,0.014670852223718873,0.9592164408425293,0,,,
1714159232.9995446,control,0.014670852223718873,0.9592164408425293,0,,,
1714159233.0045435,control,0.014670852223718873,0.9592164408425293,0,,,
1714159233.0197568,control,0.014670852223718873,0.9565468628740066,0,,,
1714159233.035261,control,0.014670852223718873,0.9484936563441855,0,,,
1714159233.051292,control,0.014670852223718873,0.9457942922511292,0,,,
1714159233.0799592,control,0.014670852223718873,0.9321833590175354,0,,,
1714159233.08398,control,0.014670852223718873,0.9294380482405054,0,,,
1714159233.0999749,control,0.014670852223718873,0.9183782547191166,0,,,
1714159233.1159205,control,0.014670852223718873,0.9071905994812317,0,,,
1714159233.1315272,control,0.014670852223718873,0.8930216582254509,0,,,
1714159233.1475544,control,0.014670852223718873,0.8901628041524876,0,,,
1714159233.1636608,control,0.014670852223718873,0.8872954793884136,0,,,
1714159233.179633,control,0.014637275679045637,0.8815352159528578,0,,,
1714159233.1952553,control,0.014637275679045637,0.8786421752334822,0,,,
1714159233.2229512,control,0.014301512034630343,0.8786421752334822,0,,,
1714159233.2277095,control,0.014301512034630343,0.8786421752334822,0,,,
1714159233.2439802,control,0.014100055400316145,0.8815352159528578,0,,,
1714159233.2596395,control,0.013764296877851828,0.8815352159528578,0,,,
1714159233.2756608,control,0.01342854145817357,0.8815352159528578,0,,,
1714159233.2916908,control,0.012924913980755215,0.8815352159528578,0,,,
1714159233.3079007,control,0.012454867588036258,0.8815352159528578,0,,,
1714159233.3239737,control,0.011850530282540869,0.8815352159528578,0,,,
1714159233.3393502,control,0.01101118717682069,0.8815352159528578,0,,,
1714159233.3558633,control,0.010003995822411705,0.8815352159528578,0,,,
1714159233.3829474,control,0.008123958013337151,0.8815352159528578,0,,,
1714159233.399657,control,0.006713968067439579,0.8815352159528578,0,,,
1714159233.4146957,control,0.005505426715391976,0.8815352159528578,0,,,
1714159233.4305267,control,0.004431181346033966,0.8815352159528578,0,,,
1714159233.4465618,control,0.0034240856472713414,0.8815352159528578,0,,,
1714159233.4627469,control,0.0025848446239767685,0.8815352159528578,0,,,
