timestamp,event_type,steering,throttle,brake,instruction,user_response,button_pressed
1714161054.2929,control,0.0,0.6212635577612914,0.6212635577612914,,,
1714161054.29674,control,0.0,0.6212635577612914,0.6212635577612914,,,
1714161054.3122544,control,0.0,0.6212635577612914,0.6212635577612914,,,
1714161054.3279371,control,0.0,0.6212635577612914,0.6212635577612914,,,
1714161054.3430517,control,0.0,0.6212635577612914,0.6212635577612914,,,
1714161054.3598557,control,0.0,0.6212635577612914,0.6212635577612914,,,
1714161054.3754377,control,0.0,0.6212635577612914,0.6212635577612914,,,
1714161054.3914664,control,0.0,0.6212635577612914,0.6212635577612914,,,
1714161054.4074929,control,0.0,0.6212635577612914,0.6212635577612914,,,
1714161054.4238393,control,0.0,0.6212635577612914,0.6212635577612914,,,
1714161054.439776,control,0.0,0.6212635577612914,0.6212635577612914,,,
1714161054.4559243,control,0.0,0.6212635577612914,0.6212635577612914,,,
1714161054.4836411,control,0.0,0.6212635577612914,0.6212635577612914,,,
1714161054.4888284,control,0.0,0.6212635577612914,0.6212635577612914,,,
1714161054.5047498,control,0.0,0.6212635577612914,0.6212635577612914,,,
1714161054.5207796,control,0.0,0.6212635577612914,0.6212635577612914,,,
1714161054.5379694,control,0.0,0.6212635577612914,0.6212635577612914,,,
1714161054.552491,control,0.0,0.6212635577612914,0.6212635577612914,,,
1714161054.568839,control,0.0,0.6212635577612914,0.6212635577612914,,,
1714161054.58483,control,0.0,0.6212635577612914,0.6212635577612914,,,
1714161054.6005323,control,0.0,0.6212635577612914,0.6212635577612914,,,
1714161054.6164143,control,0.0,0.6212635577612914,0.6212635577612914,,,
1714161054.633929,control,0.0,0.6212635577612914,0.6212635577612914,,,
1714161054.6489582,control,0.0,0.6212635577612914,0.6212635577612914,,,
1714161054.6765573,control,0.0,0.6212635577612914,0.6212635577612914,,,
1714161054.6825564,control,0.0,0.6212635577612914,0.6212635577612914,,,
1714161054.6975043,control,0.0,0.6212635577612914,0.6212635577612914,,,
1714161054.7150166,control,0.0,0.6212635577612914,0.6212635577612914,,,
1714161054.73061,control,0.0,0.6212635577612914,0.6212635577612914,,,
1714161054.7466471,control,0.0,0.6212635577612914,0.6212635577612914,,,
1714161054.7627738,control,0.0,0.6212635577612914,0.6212635577612914,,,
1714161054.7798126,control,0.0,0.6212635577612914,0.6212635577612914,,,
1714161054.8065486,control,0.0,0.6212635577612914,0.6212635577612914,,,
1714161054.8115492,control,0.0,0.6212635577612914,0.6212635577612914,,,
1714161054.8398623,control,0.0,0.6212635577612914,0.6212635577612914,,,
1714161054.844863,control,0.0,0.6212635577612914,0.6212635577612914,,,
1714161054.8721087,control,0.0,0.6212635577612914,0.6212635577612914,,,
1714161054.8776214,control,0.0,0.6212635577612914,0.6212635577612914,,,
1714161054.9049618,control,0.0,0.6212635577612914,0.6212635577612914,,,
1714161054.910482,control,0.0,0.6212635577612914,0.6212635577612914,,,
1714161054.938236,control,0.0,0.6212635577612914,0.6212635577612914,,,
1714161054.9432309,control,0.0,0.6212635577612914,0.6212635577612914,,,
1714161054.9600248,control,0.0,0.6212635577612914,0.6212635577612914,,,
1714161054.9760542,control,0.0,0.6212635577612914,0.6212635577612914,,,
1714161054.9928148,control,0.0,0.6212635577612914,0.6212635577612914,,,
1714161055.0088718,control,0.0,0.6212635577612914,0.6212635577612914,,,
1714161055.0246098,control,0.0,0.6212635577612914,0.6212635577612914,,,
1714161055.0401325,control,0.0,0.6212635577612914,0.6212635577612914,,,
1714161055.0561776,control,0.0,0.6212635577612914,0.6212635577612914,,,
1714161055.0727482,control,0.0,0.6212635577612914,0.6212635577612914,,,
1714161055.0880206,control,0.0,0.6212635577612914,0.6212635577612914,,,
1714161055.1035326,control,0.0,0.6212635577612914,0.6212635577612914,,,
1714161055.120153,control,0.0,0.6212635577612914,0.6212635577612914,,,
1714161055.1360621,control,0.0,0.6212635577612914,0.6212635577612914,,,
1714161055.151814,control,0.0,0.6212635577612914,0.6212635577612914,,,
1714161055.1800835,control,0.0,0.6212635577612914,0.6212635577612914,,,
1714161055.1861901,control,0.0,0.6212635577612914,0.6212635577612914,,,
1714161055.2128236,control,-0.005404715710645415,0,0,,,
1714161055.2173371,control,-0.005404715710645415,0,0,,,
1714161055.2363691,control,-0.005404715710645415,0,0,,,
1714161055.251885,control,-0.005404715710645415,0,0,,,
1714161055.2676685,control,-0.005404715710645415,0,0,,,
1714161055.2837079,control,-0.005404715710645415,0.017267888969123124,0,,,
1714161055.311167,control,-0.005404715710645415,0.09307808641129256,0,,,
1714161055.3166778,control,-0.005404715710645415,0.10624112294099608,0,,,
1714161055.3331985,control,-0.005404715710645415,0.13838607675206616,0,,,
1714161055.3492236,control,-0.005404715710645415,0.16335472196081402,0,,,
1714161055.3771534,control,-0.005404715710645415,0.20557990494151435,0,,,
1714161055.3821533,control,-0.005404715710645415,0.21730699790394592,0,,,
1714161055.409723,control,-0.005404715710645415,0.23463540773444125,0,,,
1714161055.4152288,control,-0.005404715710645415,0.24034327038298509,0,,,
1714161055.4307506,control,-0.005404715710645415,0.2516589786340906,0,,,
1714161055.4469252,control,-0.005404715710645415,0.27390101881707407,0,,,
1714161055.4622297,control,-0.005404715710645415,0.3010239674011399,0,,,
1714161055.4782574,control,-0.005404715710645415,0.32738739779694637,0,,,
1714161055.5058076,control,-0.005404715710645415,0.36812968351497566,0,,,
1714161055.5108068,control,-0.005404715710645415,0.36812968351497566,0,,,
1714161055.5373464,control,-0.005404715710645415,0.39761741078017865,0,,,
1714161055.5423474,control,-0.005404715710645415,0.4024427580997696,0,,,
1714161055.5688956,control,-0.005404715710645415,0.44020307724909813,0,,,
1714161055.5748932,control,-0.005404715710645415,0.44941734729060534,0,,,
1714161055.5900824,control,-0.005404715710645415,0.4675867878551181,0,,,
1714161055.6061087,control,-0.005404715710645415,0.489829122983541,0,,,
1714161055.6334217,control,-0.005404715710645415,0.5536598593076767,0,,,
1714161055.6389384,control,-0.005404715710645415,0.5618590664357805,0,,,
1714161055.6662502,control,-0.005404715710645415,0.6174018699744762,0,,,
1714161055.6712494,control,-0.005404715710645415,0.6212635577612914,0,,,
1714161055.6984608,control,-0.005404715710645415,0.6655944260979495,0,,,
1714161055.7034616,control,-0.005404715710645415,0.6763669462430741,0,,,
1714161055.7306635,control,-0.005404715710645415,0.7352447219103475,0,,,
1714161055.7358851,control,-0.005404715710645415,0.751901267366327,0,,,
1714161055.7630563,control,-0.005404715710645415,0.8372043476161997,0,,,
1714161055.7681262,control,-0.005404715710645415,0.8492258860594036,0,,,
1714161055.7839446,control,-0.005404715710645415,0.8699107950992607,0,,,
1714161055.7989786,control,-0.005404715710645415,0.8901628041524876,0,,,
1714161055.8150132,control,-0.005404715710645415,0.9043733590638868,0,,,
1714161055.8309872,control,-0.005404715710645415,0.9183782547191166,0,,,
1714161055.8579986,control,-0.005404715710645415,0.9294380482405054,0,,,
1714161055.8639932,control,-0.005404715710645415,0.9294380482405054,0,,,
1714161055.8913133,control,-0.005404715710645415,0.9403728696690115,0,,,
1714161055.8958285,control,-0.005404715710645415,0.9430873774794483,0,,,
1714161055.9113688,control,-0.005404715710645415,0.9430873774794483,0,,,
1714161055.927402,control,-0.005404715710645415,0.9430873774794483,0,,,
1714161055.9439187,control,-0.005404715710645415,0.9430873774794483,0,,,
1714161055.958973,control,-0.005404715710645415,0.9457942922511292,0,,,
1714161055.9872339,control,-0.005404715710645415,0.9484936563441855,0,,,
1714161055.992234,control,-0.005404715710645415,0.9511855117652559,0,,,
1714161056.0191221,control,-0.005404715710645415,0.9538699001714078,0,,,
1714161056.0231276,control,-0.005404715710645415,0.9565468628740066,0,,,
1714161056.0391684,control,-0.005404715710645415,0.9565468628740066,0,,,
1714161056.0551834,control,-0.005404715710645415,0.9618786747083273,0,,,
1714161056.071931,control,-0.005404715710645415,0.9645336047683365,0,,,
1714161056.0876417,control,-0.005404715710645415,0.9698217130085646,0,,,
1714161056.103821,control,-0.005404715710645415,0.9777000854222132,0,,,
1714161056.1198795,control,-0.005404715710645415,0.9906898294488262,0,,,
1714161056.1355374,control,-0.005404715710645415,0.9984007977363134,0,,,
1714161056.1511397,control,-0.005404715710645415,1,0,,,
1714161056.1686769,control,-0.005404715710645415,1,0,,,
1714161056.1847625,control,-0.005404715710645415,1,0,,,
1714161056.2117033,control,-0.005404715710645415,1,0,,,
1714161056.2162228,control,-0.005404715710645415,1,0,,,
1714161056.2449353,control,-0.005404715710645415,1,0,,,
1714161056.2501068,control,-0.005404715710645415,1,0,,,
1714161056.2666602,control,-0.005404715710645415,1,0,,,
1714161056.2827704,control,-0.005404715710645415,1,0,,,
1714161056.3027835,control,-0.005404715710645415,1,0,,,
1714161056.316982,control,-0.005404715710645415,1,0,,,
1714161056.3331301,control,-0.005404715710645415,1,0,,,
1714161056.3496704,control,-0.005404715710645415,1,0,,,
1714161056.365185,control,-0.005404715710645415,1,0,,,
1714161056.3818061,control,-0.005404715710645415,1,0,,,
1714161056.3998249,control,-0.005404715710645415,1,0,,,
1714161056.4148731,control,-0.005404715710645415,1,0,,,
1714161056.4307728,control,-0.005404715710645415,1,0,,,
1714161056.4468355,control,-0.005404715710645415,1,0,,,
1714161056.462257,control,-0.005404715710645415,1,0,,,
1714161056.4782803,control,-0.005404715710645415,1,0,,,
1714161056.505397,control,-0.005404715710645415,1,0,,,
1714161056.5106494,control,-0.005404715710645415,1,0,,,
1714161056.5378296,control,-0.005404715710645415,1,0,,,
1714161056.543828,control,-0.005404715710645415,1,0,,,
1714161056.5596387,control,-0.005404715710645415,1,0,,,
1714161056.575666,control,-0.005404715710645415,1,0,,,
1714161056.5918858,control,-0.005404715710645415,1,0,,,
1714161056.6070077,control,-0.005404715710645415,1,0,,,
1714161056.6235373,control,-0.005404715710645415,1,0,,,
1714161056.6396859,control,-0.005404715710645415,1,0,,,
1714161056.6557188,control,-0.005404715710645415,1,0,,,
1714161056.6711605,control,-0.005404715710645415,1,0,,,
1714161056.6881967,control,-0.005404715710645415,1,0,,,
1714161056.7037063,control,-0.005404715710645415,1,0,,,
1714161056.7197294,control,-0.005404715710645415,1,0,,,
1714161056.7350664,control,-0.005404715710645415,1,0,,,
1714161056.7517142,control,-0.005404715710645415,1,0,,,
1714161056.767206,control,-0.005404715710645415,1,0,,,
1714161056.7837238,control,-0.005404715710645415,1,0,,,
1714161056.7997541,control,-0.005404715710645415,1,0,,,
1714161056.815851,control,-0.005404715710645415,1,0,,,
1714161056.8313744,control,-0.005404715710645415,1,0,,,
1714161056.8584301,control,-0.005404715710645415,1,0,,,
1714161056.8634357,control,-0.005404715710645415,1,0,,,
1714161056.8913078,control,-0.005404715710645415,1,0,,,
1714161056.8958218,control,-0.005404715710645415,1,0,,,
1714161056.922866,control,-0.005404715710645415,1,0,,,
1714161056.9273825,control,-0.005404715710645415,1,0,,,
1714161056.9430106,control,-0.005404715710645415,1,0,,,
1714161056.9602795,control,-0.005404715710645415,1,0,,,
1714161056.9750524,control,-0.005404715710645415,1,0,,,
1714161056.9916363,control,-0.005404715710645415,1,0,,,
1714161057.0071309,control,-0.005404715710645415,1,0,,,
1714161057.0238285,control,-0.005404715710645415,1,0,,,
1714161057.0392253,control,-0.005404715710645415,1,0,,,
1714161057.0569408,control,-0.005404715710645415,1,0,,,
1714161057.0720096,control,-0.005404715710645415,1,0,,,
1714161057.089055,control,-0.005404715710645415,1,0,,,
1714161057.104645,control,-0.005404715710645415,1,0,,,
1714161057.121025,control,-0.005404715710645415,1,0,,,
1714161057.1360571,control,-0.005404715710645415,1,0,,,
1714161057.1557176,control,-0.005404715710645415,1,0,,,
1714161057.1717362,control,-0.005404715710645415,1,0,,,
1714161057.1989343,control,-0.005404715710645415,1,0,,,
1714161057.203933,control,-0.005404715710645415,1,0,,,
1714161057.2206378,control,-0.005404715710645415,1,0,,,
1714161057.2350104,control,-0.005404715710645415,1,0,,,
1714161057.2632635,control,-0.005404715710645415,1,0,,,
1714161057.269776,control,-0.005404715710645415,1,0,,,
1714161057.285796,control,-0.005404715710645415,1,0,,,
1714161057.301907,control,-0.005404715710645415,1,0,,,
1714161057.3171875,control,-0.005404715710645415,1,0,,,
1714161057.3337038,control,-0.005404715710645415,1,0,,,
1714161057.3498151,control,-0.005404715710645415,1,0,,,
1714161057.3652585,control,-0.005404715710645415,1,0,,,
1714161057.393301,control,-0.005404715710645415,1,0,,,
1714161057.3978128,control,-0.005404715710645415,1,0,,,
1714161057.4133832,control,-0.005404715710645415,1,0,,,
1714161057.4299047,control,-0.005404715710645415,1,0,,,
1714161057.455977,control,-0.005404715710645415,1,0,,,
1714161057.4614892,control,-0.005404715710645415,1,0,,,
1714161057.4770951,control,-0.005404715710645415,1,0,,,
1714161057.493141,control,-0.005404715710645415,1,0,,,
1714161057.5098975,control,-0.005404715710645415,1,0,,,
1714161057.5258694,control,-0.005404715710645415,1,0,,,
1714161057.5412076,control,-0.005404715710645415,1,0,,,
1714161057.5577855,control,-0.005404715710645415,1,0,,,
1714161057.5738118,control,-0.005404715710645415,1,0,,,
1714161057.58985,control,-0.005404715710645415,1,0,,,
1714161057.6058826,control,-0.005404715710645415,1,0,,,
1714161057.6215365,control,-0.005404715710645415,1,0,,,
1714161057.6371715,control,-0.005404715710645415,1,0,,,
1714161057.653722,control,-0.005404715710645415,1,0,,,
1714161057.6693807,control,-0.005404715710645415,1,0,,,
1714161057.6848924,control,-0.005404715710645415,1,0,,,
1714161057.7010243,control,-0.005404715710645415,1,0,,,
1714161057.7170403,control,-0.005404715710645415,1,0,,,
1714161057.7335808,control,-0.005404715710645415,1,0,,,
1714161057.7492943,control,-0.005404715710645415,1,0,,,
1714161057.7671077,control,-0.005404715710645415,1,0,,,
1714161057.7821898,control,-0.005404715710645415,1,0,,,
1714161057.798348,control,-0.005404715710645415,1,0,,,
1714161057.8148668,control,-0.005404715710645415,1,0,,,
1714161057.8307235,control,-0.005404715710645415,1,0,,,
1714161057.8467467,control,-0.005404715710645415,1,0,,,
1714161057.8627794,control,-0.005404715710645415,1,0,,,
1714161057.8780148,control,-0.005404715710645415,1,0,,,
1714161057.9062877,control,0.008963252719349495,1,0,,,
1714161057.9122918,control,0.009265401842817947,1,0,,,
1714161057.9381554,control,0.010339723918033752,1,0,,,
1714161057.9431546,control,0.010608308068942402,1,0,,,
1714161057.9707894,control,0.011884104346159203,1,0,,,
1714161057.975861,control,0.012186272133276737,1,0,,,
1714161057.9918468,control,0.012924913980755215,1,0,,,
1714161058.0088985,control,0.013932175746503461,1,0,,,
1714161058.0357962,control,0.01500661950192187,1,0,,,
1714161058.0407975,control,0.015140927356189686,1,0,,,
1714161058.0568173,control,0.015510276785931526,1,0,,,
1714161058.0723922,control,0.01571174188804775,1,0,,,
1714161058.1005204,control,0.015846052663512973,1,0,,,
1714161058.1050239,control,0.015846052663512973,1,0,,,
1714161058.1310587,control,0.015846052663512973,1,0,,,
1714161058.1361418,control,0.015846052663512973,1,0,,,
1714161058.165304,control,0.015846052663512973,1,0,,,
1714161058.1734731,control,0.015846052663512973,1,0,,,
1714161058.1886652,control,0.015846052663512973,1,0,,,
1714161058.2048082,control,0.015846052663512973,1,0,,,
1714161058.220839,control,0.015846052663512973,1,0,,,
1714161058.2368681,control,0.015846052663512973,1,0,,,
1714161058.252832,control,0.015846052663512973,1,0,,,
1714161058.2680266,control,0.015846052663512973,1,0,,,
1714161058.2835374,control,0.015846052663512973,1,0,,,
1714161058.3005836,control,0.015846052663512973,1,0,,,
1714161058.3161395,control,0.015846052663512973,1,0,,,
1714161058.33292,control,0.015846052663512973,1,0,,,
1714161058.3486142,control,0.015846052663512973,1,0,,,
1714161058.363668,control,0.015846052663512973,1,0,,,
1714161058.380188,control,0.015846052663512973,1,0,,,
1714161058.3960989,control,0.015846052663512973,1,0,,,
1714161058.4121776,control,0.015846052663512973,1,0,,,
1714161058.428203,control,0.015846052663512973,1,0,,,
1714161058.444715,control,0.015846052663512973,1,0,,,
1714161058.4602554,control,0.015846052663512973,1,0,,,
1714161058.475985,control,0.015846052663512973,1,0,,,
1714161058.492255,control,0.015846052663512973,1,0,,,
1714161058.5079768,control,0.015846052663512973,1,0,,,
1714161058.523519,control,0.015846052663512973,1,0,,,
1714161058.540498,control,0.015846052663512973,1,0,,,
1714161058.5564573,control,0.015846052663512973,1,0,,,
1714161058.5720546,control,0.015846052663512973,1,0,,,
1714161058.5887773,control,0.015846052663512973,1,0,,,
1714161058.6048608,control,0.015846052663512973,1,0,,,
1714161058.6208875,control,0.015846052663512973,1,0,,,
1714161058.6364322,control,0.015846052663512973,1,0,,,
1714161058.6519465,control,0.015846052663512973,1,0,,,
1714161058.6680267,control,0.01571174188804775,1,0,,,
1714161058.6836193,control,0.015510276785931526,1,0,,,
1714161058.7001598,control,0.015342390163079634,1,0,,,
1714161058.716793,control,0.015140927356189686,1,0,,,
1714161058.7329564,control,0.014771582056475233,1,0,,,
1714161058.7499857,control,0.014435817101283874,1,0,,,
1714161058.7771387,control,0.013797872589223572,1,0,,,
1714161058.782138,control,0.013629994341886274,1,0,,,
1714161058.7977483,control,0.013394966083943943,1,0,,,
1714161058.8138106,control,0.013059213989880152,1,0,,,
1714161058.840193,control,0.01272346483960501,1,0,,,
1714161058.8457015,control,0.01272346483960501,1,0,,,
1714161058.8730893,control,0.012689890083571057,1,0,,,
1714161058.877555,control,0.012689890083571057,1,0,,,
1714161058.8931,control,0.012689890083571057,1,0,,,
1714161058.90978,control,0.012689890083571057,1,0,,,
1714161058.9256241,control,0.012689890083571057,1,0,,,
1714161058.9411464,control,0.012689890083571057,1,0,,,
1714161058.9577777,control,0.012689890083571057,1,0,,,
1714161058.9737976,control,0.012689890083571057,1,0,,,
1714161058.9898314,control,0.012689890083571057,1,0,,,
1714161059.0058753,control,0.012689890083571057,1,0,,,
1714161059.0213814,control,0.012689890083571057,1,0,,,
1714161059.0371194,control,0.012689890083571057,1,0,,,
1714161059.053631,control,0.012689890083571057,1,0,,,
1714161059.069054,control,0.012689890083571057,1,0,,,
1714161059.0850813,control,0.012689890083571057,1,0,,,
1714161059.1013865,control,0.012689890083571057,1,0,,,
1714161059.1174026,control,0.012689890083571057,1,0,,,
1714161059.1339138,control,0.012689890083571057,1,0,,,
1714161059.1489294,control,0.012689890083571057,1,0,,,
1714161059.180495,control,0.012689890083571057,1,0,,,
1714161059.18615,control,0.012689890083571057,1,0,,,
1714161059.2026675,control,0.012689890083571057,1,0,,,
1714161059.2182372,control,0.012689890083571057,1,0,,,
1714161059.2447703,control,0.012689890083571057,1,0,,,
1714161059.250778,control,0.012689890083571057,1,0,,,
1714161059.2779076,control,0.012689890083571057,1,0,,,
1714161059.2829108,control,0.012689890083571057,1,0,,,
1714161059.31005,control,0.012689890083571057,1,0,,,
1714161059.3157327,control,0.012689890083571057,1,0,,,
1714161059.3302612,control,0.012689890083571057,1,0,,,
1714161059.346222,control,0.012689890083571057,1,0,,,
1714161059.3740232,control,0.012689890083571057,1,0,,,
1714161059.3791592,control,0.012689890083571057,1,0,,,
1714161059.394051,control,0.012689890083571057,1,0,,,
1714161059.4106877,control,0.012689890083571057,1,0,,,
1714161059.426251,control,0.012689890083571057,1,0,,,
1714161059.44276,control,0.012689890083571057,1,0,,,
1714161059.4588158,control,0.012689890083571057,1,0,,,
1714161059.4734533,control,0.012689890083571057,1,0,,,
1714161059.4903326,control,0.012689890083571057,1,0,,,
1714161059.5177617,control,0.012689890083571057,1,0,,,
1714161059.5227642,control,0.012689890083571057,1,0,,,
1714161059.5498695,control,0.012689890083571057,1,0,,,
1714161059.5548713,control,0.012689890083571057,1,0,,,
1714161059.5739167,control,0.012689890083571057,1,0,,,
1714161059.588959,control,0.012689890083571057,1,0,,,
1714161059.6049743,control,0.012689890083571057,1,0,,,
1714161059.621472,control,0.012689890083571057,1,0,,,
1714161059.6371605,control,0.012689890083571057,1,0,,,
1714161059.6538527,control,0.012689890083571057,1,0,,,
1714161059.6689796,control,0.012689890083571057,1,0,,,
1714161059.6970713,control,0.01272346483960501,1,0,,,
1714161059.7020764,control,0.01272346483960501,1,0,,,
1714161059.7288108,control,0.01275703962431976,1,0,,,
1714161059.7338102,control,0.01275703962431976,1,0,,,
1714161059.749539,control,0.01275703962431976,1,0,,,
1714161059.7650347,control,0.01275703962431976,1,0,,,
1714161059.7814963,control,0.01275703962431976,1,0,,,
1714161059.7969522,control,0.01275703962431976,1,0,,,
1714161059.813475,control,0.01275703962431976,1,0,,,
1714161059.8295057,control,0.01275703962431976,1,0,,,
1714161059.8450143,control,0.01275703962431976,1,0,,,
1714161059.8731153,control,0.01275703962431976,1,0,,,
1714161059.8776314,control,0.01275703962431976,1,0,,,
1714161059.893144,control,0.012790614437791012,1,0,,,
1714161059.91018,control,0.012790614437791012,1,0,,,
1714161059.9377296,control,0.012891339051500868,1,0,,,
1714161059.9427288,control,0.012891339051500868,1,0,,,
1714161059.9697762,control,0.013059213989880152,1,0,,,
1714161059.974775,control,0.013126364170767088,1,0,,,
1714161060.001837,control,0.013596418784896666,1,0,,,
1714161060.007349,control,0.013629994341886274,1,0,,,
1714161060.0228708,control,0.014100055400316145,1,0,,,
1714161060.0387225,control,0.014637275679045637,1,0,,,
1714161060.0547366,control,0.015140927356189686,1,0,,,
1714161060.0700734,control,0.015812474916251786,1,0,,,
1714161060.0983727,control,0.017088455064235744,1,0,,,
1714161060.1033752,control,0.017424248390092125,1,0,,,
1714161060.1194153,control,0.01812942725132235,1,0,,,
1714161060.1359577,control,0.01900253089231023,1,0,,,
1714161060.1514752,control,0.019842080920597478,1,0,,,
1714161060.1670551,control,0.020681658909961084,1,0,,,
1714161060.1835694,control,0.021353342229142213,1,0,,,
1714161060.1996086,control,0.021924288169195855,1,0,,,
1714161060.2157571,control,0.02242807585134285,1,0,,,
1714161060.2318258,control,0.022965461927547514,1,0,,,
1714161060.2478747,control,0.023402097861998872,1,0,,,
1714161060.2647443,control,0.023771565996608485,1,0,,,
1714161060.2906315,control,0.024174629544661354,1,0,,,
1714161060.2952366,control,0.024308985798740204,1,0,,,
1714161060.3120804,control,0.02471205984310997,1,0,,,
1714161060.3271675,control,0.02518232304695089,1,0,,,
1714161060.3547666,control,0.025988514551669895,1,0,,,
1714161060.3592837,control,0.026190067662009594,1,0,,,
1714161060.3800175,control,0.026593180278385947,1,0,,,
1714161060.4062283,control,0.027063489256048873,1,0,,,
1714161060.4117382,control,0.027063489256048873,1,0,,,
1714161060.4388409,control,0.027399431552799947,1,0,,,
1714161060.4438396,control,0.027399431552799947,1,0,,,
1714161060.4708672,control,0.027433026121118646,1,0,,,
1714161060.4759727,control,0.027433026121118646,1,0,,,
1714161060.4961195,control,0.027433026121118646,1,0,,,
1714161060.512637,control,0.02760099989235642,1,0,,,
1714161060.5282347,control,0.02783616578890501,1,0,,,
1714161060.5447626,control,0.028272910635808248,1,0,,,
1714161060.5619721,control,0.028844054800309212,1,0,,,
1714161060.5891469,control,0.029986399911774427,1,0,,,
1714161060.5951483,control,0.030154398363674534,1,0,,,
1714161060.6216416,control,0.031364037998034826,1,0,,,
1714161060.6271532,control,0.031431242856031605,1,0,,,
1714161060.6429932,control,0.03206970323936773,1,0,,,
1714161060.6580563,control,0.03230493204233613,1,0,,,
1714161060.6739707,control,0.032439350102970735,1,0,,,
1714161060.6900024,control,0.032439350102970735,1,0,,,
1714161060.717766,control,0.032439350102970735,1,0,,,
1714161060.722765,control,0.032439350102970735,1,0,,,
1714161060.7488515,control,0.032439350102970735,1,0,,,
1714161060.754852,control,0.032439350102970735,1,0,,,
1714161060.7703834,control,0.032439350102970735,1,0,,,
1714161060.7864053,control,0.032439350102970735,1,0,,,
1714161060.8027337,control,0.032439350102970735,1,0,,,
1714161060.8188,control,0.032439350102970735,1,0,,,
1714161060.834849,control,0.032506559572116726,1,0,,,
1714161060.8500144,control,0.03264097939110516,1,0,,,
1714161060.8662775,control,0.032943428299448976,1,0,,,
1714161060.8827963,control,0.03314506424637467,1,0,,,
1714161060.8992403,control,0.03348113014877834,1,0,,,
1714161060.9148693,control,0.03401885133747313,1,0,,,
1714161060.9302204,control,0.03485908015141225,1,0,,,
1714161060.9577897,control,0.03660691493359059,1,0,,,
1714161060.9633007,control,0.0369094471783861,1,0,,,
1714161060.9910755,control,0.03848944868092611,1,0,,,
1714161060.9960752,control,0.03872478428145214,1,0,,,
1714161061.0116904,control,0.03922908930995573,1,0,,,
1714161061.0277114,control,0.03953168187408194,1,0,,,
1714161061.0432384,control,0.039666169774968986,1,0,,,
1714161061.059261,control,0.039699791973851165,1,0,,,
1714161061.0757854,control,0.03986790431403133,1,0,,,
1714161061.1029189,control,0.03986790431403133,1,0,,,
1714161061.1079912,control,0.03986790431403133,1,0,,,
1714161061.123145,control,0.03986790431403133,1,0,,,
1714161061.1401906,control,0.03986790431403133,1,0,,,
1714161061.167045,control,0.04037225487221272,1,0,,,
1714161061.1710458,control,0.040405878969029814,1,0,,,
1714161061.2005415,control,0.041582780367163064,1,0,,,
1714161061.2072003,control,0.041784546349391306,1,0,,,
1714161061.2221987,control,0.0423226056169348,1,0,,,
1714161061.2382429,control,0.042625274685153584,1,0,,,
1714161061.2547483,control,0.042827058391490785,1,0,,,
1714161061.2818072,control,0.042827058391490785,1,0,,,
1714161061.2863202,control,0.042827058391490785,1,0,,,
1714161061.3028376,control,0.042827058391490785,1,0,,,
1714161061.31848,control,0.042827058391490785,1,0,,,
1714161061.3339887,control,0.042827058391490785,1,0,,,
1714161061.3508563,control,0.042827058391490785,1,0,,,
1714161061.3663967,control,0.042827058391490785,1,0,,,
1714161061.3823483,control,0.042827058391490785,1,0,,,
1714161061.3979976,control,0.042827058391490785,1,0,,,
1714161061.4261527,control,0.042827058391490785,1,0,,,
1714161061.4301531,control,0.042827058391490785,1,0,,,
1714161061.4569104,control,0.042827058391490785,1,0,,,
1714161061.4624162,control,0.042827058391490785,1,0,,,
1714161061.4901044,control,0.042827058391490785,1,0,,,
1714161061.4951036,control,0.042827058391490785,1,0,,,
1714161061.5107224,control,0.042827058391490785,1,0,,,
1714161061.5260592,control,0.042827058391490785,1,0,,,
1714161061.5425723,control,0.042827058391490785,1,0,,,
1714161061.5585024,control,0.042827058391490785,1,0,,,
1714161061.5735264,control,0.042827058391490785,1,0,,,
1714161061.6010828,control,0.042692535534812726,1,0,,,
1714161061.606592,control,0.042692535534812726,1,0,,,
1714161061.6333113,control,0.042692535534812726,1,0,,,
1714161061.638822,control,0.042692535534812726,1,0,,,
1714161061.6540442,control,0.042692535534812726,1,0,,,
1714161061.6701033,control,0.042625274685153584,1,0,,,
1714161061.6861455,control,0.04249075414014667,1,0,,,
1714161061.7023807,control,0.0423226056169348,1,0,,,
1714161061.7194018,control,0.0419863157278042,1,0,,,
1714161061.7461448,control,0.04144827159098702,1,0,,,
1714161061.7511437,control,0.041414644631075026,1,0,,,
1714161061.7801635,control,0.04054037626921445,1,0,,,
1714161061.7851648,control,0.04037225487221272,1,0,,,
1714161061.8008163,control,0.03953168187408194,1,0,,,
1714161061.8160274,control,0.03848944868092611,1,0,,,
1714161061.832562,control,0.03727921797947792,1,0,,,
1714161061.8480937,control,0.03606909631928746,1,0,,,
1714161061.8641462,control,0.03475825012134515,1,0,,,
1714161061.8801694,control,0.03348113014877834,1,0,,,
1714161061.8977234,control,0.03223772344963188,1,0,,,
1714161061.9237614,control,0.03038959905546048,1,0,,,
1714161061.9288974,control,0.030154398363674534,1,0,,,
1714161061.9440904,control,0.029348021136630133,1,0,,,
1714161061.9601188,control,0.028608875535452,1,0,,,
1714161061.9761872,control,0.02783616578890501,1,0,,,
1714161061.9927049,control,0.027063489256048873,1,0,,,
1714161062.0091677,control,0.026223660053360534,1,0,,,
1714161062.0353749,control,0.024644880281953614,1,0,,,
1714161062.0403788,control,0.024174629544661354,1,0,,,
1714161062.0673666,control,0.021857117324251624,1,0,,,
1714161062.073368,control,0.021521266044509282,1,0,,,
1714161062.0999203,control,0.01843165224029865,1,0,,,
1714161062.1049194,control,0.017894365662754347,1,0,,,
1714161062.1207254,control,0.015510276785931526,1,0,,,
1714161062.1367483,control,0.012924913980755215,1,0,,,
1714161062.1521065,control,0.010104714010887129,1,0,,,
1714161062.168647,control,0.006713968067439579,1,0,,,
1714161062.1836576,control,0.003189097725403821,1,0,,,
1714161062.2149203,control,-0.0039612023590025825,1,0,,,
1714161062.221938,control,-0.005807560407863365,1,0,,,
1714161062.249475,control,-0.0116490864591435,1,0,,,
1714161062.253478,control,-0.012824189280094475,1,0,,,
1714161062.2690282,control,-0.015208081487815415,1,0,,,
1714161062.2850492,control,-0.017021296863791006,1,0,,,
1714161062.3015716,control,-0.017827205573103338,1,0,,,
1714161062.3175936,control,-0.017692885875496125,1,0,,,
1714161062.3331037,control,-0.017155613418781343,1,0,,,
1714161062.3597941,control,-0.014402240785996443,1,0,,,
1714161062.3663163,control,-0.013629994341886274,1,0,,,
1714161062.392847,control,-0.009668269981716687,1,0,,,
1714161062.398025,control,-0.008661105232324755,1,0,,,
1714161062.4135373,control,-0.005941842386010439,1,0,,,
1714161062.4300735,control,-0.003189097725403821,1,0,,,
1714161062.446125,control,-0.0008728029560042987,1,0,,,
1714161062.462815,control,0.0012756354575484802,1,0,,,
1714161062.479651,control,0.003189097725403821,1,0,,,
1714161062.5068557,control,0.004766881808842218,1,0,,,
1714161062.512258,control,0.004968302597389185,1,0,,,
1714161062.5390372,control,0.004901162290555939,1,0,,,
1714161062.5440392,control,0.004666171560632133,1,0,,,
1714161062.5702322,control,0.0032226674063594676,1,0,,,
1714161062.575743,control,0.0029205405301589676,1,0,,,
1714161062.591293,control,0.001376343642515778,1,0,,,
1714161062.60701,control,-0.00036926271209609826,1,0,,,
1714161062.6235318,control,-0.0024505664288622673,1,0,,,
1714161062.6395562,control,-0.0046997416327510914,0.9906898294488262,0,,,
1714161062.655071,control,-0.006982535351379313,0.972454970143269,0,,,
1714161062.6711566,control,-0.00939969088184581,0.9538699001714078,0,,,
1714161062.6879013,control,-0.012286995220708396,0.9239239512708277,0,,,
1714161062.7149308,control,-0.016114675933985436,0.8728300172221422,0,,,
1714161062.720455,control,-0.016954138816841168,0.8669827402182236,0,,,
1714161062.7364843,control,-0.01886820540346316,0.8432337839429888,0,,,
1714161062.7528806,control,-0.020480157579111802,0.80648045283843,0,,,
1714161062.7685447,control,-0.02162202091544845,0.7650231145123714,0,,,
1714161062.7840745,control,-0.022226559427318316,0.7217099362473083,0,,,
1714161062.8008482,control,-0.022360903508514624,0.6799313016534824,0,,,
1714161062.8159752,control,-0.022360903508514624,0.6287945016040417,0,,,
1714161062.8324814,control,-0.022360903508514624,0.5820735872329712,0,,,
1714161062.8485115,control,-0.022360903508514624,0.5158786685404688,0,,,
1714161062.8640676,control,-0.022360903508514624,0.44941734729060534,0,,,
1714161062.8800914,control,-0.022360903508514624,0.3878751353819707,0,,,
1714161062.8962152,control,-0.022360903508514624,0.31692805238137467,0,,,
1714161062.9236095,control,-0.022360903508514624,0.1571726969083409,0,,,
1714161062.9281168,control,-0.022360903508514624,0.13838607675206616,0,,,
1714161062.9441483,control,-0.022360903508514624,0.04554416707003428,0,,,
1714161062.9621708,control,-0.022360903508514624,0,0,,,
1714161062.980639,control,-0.022360903508514624,0,0,,,
1714161062.9956505,control,-0.022360903508514624,0,0,,,
1714161063.011826,control,-0.022360903508514624,0,0,,,
1714161063.0271046,control,-0.022360903508514624,0,0,,,
1714161063.043616,control,-0.022360903508514624,0,0,,,
1714161063.05929,control,-0.022360903508514624,0,0,,,
1714161063.0760224,control,-0.022360903508514624,0,0,,,
1714161063.10204,control,-0.022360903508514624,0,0,,,
1714161063.1075516,control,-0.022360903508514624,0,0,,,
1714161063.1230614,control,-0.022159387687737283,0,0,,,
1714161063.1400852,control,-0.021957873665785155,0,0,,,
1714161063.1670787,control,-0.02128617304056281,0.0028277482171481516,0,,,
1714161063.1720784,control,-0.021084666624315813,0.059365196501131035,0,,,
1714161063.198572,control,-0.02027865791065446,0.24034327038298509,0,,,
1714161063.2035725,control,-0.02011074277834633,0.28483322710238435,0,,,
1714161063.2314339,control,-0.019539839751132014,0.4854213658761737,0,,,
1714161063.237948,control,-0.01943909349037435,0.5244028813951171,0,,,
1714161063.2534776,control,-0.019405511491212953,0.6096618436644565,0,,,
1714161063.269015,control,-0.019405511491212953,0.6975587726447999,0,,,
1714161063.2969987,control,-0.019405511491212953,0.8581450404398726,0,,,
1714161063.3019993,control,-0.019405511491212953,0.8786421752334822,0,,,
1714161063.328799,control,-0.019405511491212953,0.972454970143269,0,,,
1714161063.3347988,control,-0.019405511491212953,0.9932669851660886,0,,,
1714161063.35145,control,-0.019405511491212953,1,0,,,
1714161063.366893,control,-0.019405511491212953,1,0,,,
1714161063.3824036,control,-0.019405511491212953,1,0,,,
1714161063.3980536,control,-0.019405511491212953,1,0,,,
1714161063.4140654,control,-0.019405511491212953,1,0,,,
1714161063.4307132,control,-0.019405511491212953,1,0,,,
1714161063.4468105,control,-0.019405511491212953,1,0,,,
1714161063.4733572,control,-0.019405511491212953,1,0,,,
1714161063.4788713,control,-0.019405511491212953,1,0,,,
1714161063.5061176,control,-0.019405511491212953,1,0,,,
1714161063.5112104,control,-0.019405511491212953,1,0,,,
1714161063.5383499,control,-0.019405511491212953,1,0,,,
1714161063.5433438,control,-0.019405511491212953,1,0,,,
1714161063.5703955,control,-0.019405511491212953,1,0,,,
1714161063.5749013,control,-0.019405511491212953,1,0,,,
1714161063.5934272,control,-0.01943909349037435,1,0,,,
1714161063.6094525,control,-0.019539839751132014,1,0,,,
1714161063.6249695,control,-0.01970775106785281,1,0,,,
1714161063.652237,control,-0.020077159888219637,1,0,,,
1714161063.6577468,control,-0.020077159888219637,1,0,,,
1714161063.6847987,control,-0.02044657418603378,1,0,,,
1714161063.6901472,control,-0.020580908035714343,1,0,,,
1714161063.8178315,control,-0.020782410203898292,1,0,,,
1714161063.82083,control,-0.020916745918869876,1,0,,,
1714161063.8364809,control,-0.020916745918869876,1,0,,,
1714161063.8525877,control,-0.020916745918869876,1,0,,,
1714161063.8682384,control,-0.020916745918869876,1,0,,,
1714161063.895794,control,-0.020916745918869876,1,0,,,
1714161063.9008,control,-0.020916745918869876,1,0,,,
1714161063.9165432,control,-0.020916745918869876,1,0,,,
1714161063.9330678,control,-0.020916745918869876,1,0,,,
1714161063.9588997,control,-0.020916745918869876,1,0,,,
1714161063.9649155,control,-0.020916745918869876,1,0,,,
1714161063.9804258,control,-0.021017498200042704,1,0,,,
1714161063.9960158,control,-0.02128617304056281,1,0,,,
1714161064.024026,control,-0.02162202091544845,1,0,,,
1714161064.043567,control,-0.02199145921188699,1,0,,,
1714161064.0582492,control,-0.022495248396466428,1,0,,,
1714161064.0875356,control,-0.023872331154813374,1,0,,,
1714161064.10204,control,-0.024577700943110785,1,0,,,
1714161064.1186526,control,-0.025417458810070084,1,0,,,
1714161064.1341681,control,-0.026122883056434874,1,0,,,
1714161064.1501975,control,-0.026794739817198227,1,0,,,
1714161064.1670687,control,-0.02733224260148431,1,0,,,
1714161064.1937077,control,-0.028004143311352453,1,0,,,
1714161064.198219,control,-0.02803773900503412,1,0,,,
1714161064.2156758,control,-0.02834010310312861,1,0,,,
1714161064.2313635,control,-0.028440892283730725,1,0,,,
1714161064.2476501,control,-0.028575278756348417,1,0,,,
1714161064.263671,control,-0.02870966626025523,1,0,,,
1714161064.2797015,control,-0.029012041939859828,1,0,,,
1714161064.2957234,control,-0.029381619419163094,1,0,,,
1714161064.3112404,control,-0.02988560165297147,1,0,,,
1714161064.3272684,control,-0.030423199427900956,1,0,,,
1714161064.3437765,control,-0.031128823219929932,1,0,,,
1714161064.3589501,control,-0.03166646209666496,1,0,,,
1714161064.3869953,control,-0.032405745478218874,1,0,,,
1714161064.391996,control,-0.032506559572116726,1,0,,,
1714161064.419115,control,-0.032540164416662805,1,0,,,
1714161064.4241152,control,-0.032540164416662805,1,0,,,
1714161064.451618,control,-0.032540164416662805,1,0,,,
1714161064.457129,control,-0.032540164416662805,1,0,,,
1714161064.4724822,control,-0.032540164416662805,1,0,,,
1714161064.4883926,control,-0.032540164416662805,1,0,,,
1714161064.504915,control,-0.032540164416662805,1,0,,,
1714161064.5202382,control,-0.032540164416662805,1,0,,,
1714161064.535939,control,-0.032540164416662805,1,0,,,
1714161064.5521142,control,-0.032540164416662805,1,0,,,
1714161064.5688493,control,-0.032540164416662805,1,0,,,
1714161064.67665,control,-0.032540164416662805,1,0,,,
1714161064.6796503,control,-0.030120798537550647,1,0,,,
1714161064.695167,control,-0.030255198250492728,1,0,,,
1714161064.7118986,control,-0.030456799868972716,1,0,,,
1714161064.7279549,control,-0.030960814772444178,1,0,,,
1714161064.7536476,control,-0.03196889198205366,1,0,,,
1714161064.7591581,control,-0.03213691110588244,1,0,,,
1714161064.776717,control,-0.032674584529773926,1,0,,,
1714161064.7912357,control,-0.03307785196573893,1,0,,,
1714161064.807114,control,-0.033380309588299066,1,0,,,
1714161064.8232045,control,-0.03354834423335977,1,0,,,
1714161064.8392477,control,-0.03388441921020988,1,0,,,
1714161064.8558614,control,-0.03438854603481551,1,0,,,
1714161064.871646,control,-0.0352624073716882,1,0,,,
1714161064.8876028,control,-0.036136322500110306,1,0,,,
1714161064.9041078,control,-0.03717837039198201,1,0,,,
1714161064.9309137,control,-0.038455829657535474,1,0,,,
1714161064.9369345,control,-0.03872478428145214,1,0,,,
1714161064.9637163,control,-0.03939719540096716,1,0,,,
1714161064.9692676,control,-0.03939719540096716,1,0,,,
1714161064.9858804,control,-0.03946443845935754,1,0,,,
1714161065.0011797,control,-0.03946443845935754,1,0,,,
1714161065.0172184,control,-0.03946443845935754,1,0,,,
1714161065.0333252,control,-0.03946443845935754,1,0,,,
1714161065.0500364,control,-0.03946443845935754,1,0,,,
1714161065.077173,control,-0.03976703664054096,1,0,,,
1714161065.083173,control,-0.039800659108500856,1,0,,,
1714161065.1093116,control,-0.04043950315706238,1,0,,,
1714161065.1148217,control,-0.04050675180707854,1,0,,,
1714161065.1309023,control,-0.04097750263303185,1,0,,,
1714161065.1469266,control,-0.041549153032487476,1,0,,,
1714161065.162445,control,-0.04218808851885884,1,0,,,
1714161065.1780767,control,-0.04275979677005523,1,0,,,
1714161065.1935797,control,-0.043230636264302964,1,0,,,
1714161065.2101417,control,-0.04326426838638698,1,0,,,
1714161065.2284734,control,-0.04326426838638698,1,0,,,
1714161065.2430677,control,-0.04326426838638698,1,0,,,
1714161065.2711613,control,-0.04326426838638698,1,0,,,
1714161065.2756696,control,-0.04326426838638698,1,0,,,
1714161065.3047597,control,-0.04326426838638698,1,0,,,
1714161065.3092747,control,-0.04326426838638698,1,0,,,
1714161065.3252947,control,-0.04326426838638698,1,0,,,
1714161065.3418107,control,-0.04326426838638698,1,0,,,
1714161065.4353516,control,-0.04326426838638698,1,0,,,
1714161065.4383614,control,-0.04326426838638698,1,0,,,
1714161065.4538803,control,-0.04326426838638698,1,0,,,
1714161065.469287,control,-0.04326426838638698,1,0,,,
1714161065.4853024,control,-0.04326426838638698,1,0,,,
1714161065.5133345,control,-0.04326426838638698,1,0,,,
1714161065.517857,control,-0.04326426838638698,1,0,,,
1714161065.544863,control,-0.04326426838638698,1,0,,,
1714161065.5498698,control,-0.04326426838638698,1,0,,,
1714161065.5649748,control,-0.04326426838638698,1,0,,,
1714161065.5811923,control,-0.04326426838638698,1,0,,,
1714161065.5971146,control,-0.04326426838638698,1,0,,,
1714161065.6130583,control,-0.04326426838638698,1,0,,,
1714161065.629075,control,-0.04326426838638698,1,0,,,
1714161065.6569145,control,-0.04326426838638698,1,0,,,
1714161065.661912,control,-0.04326426838638698,1,0,,,
1714161065.6882226,control,-0.04326426838638698,1,0,,,
1714161065.6942234,control,-0.04326426838638698,1,0,,,
1714161065.720959,control,-0.04326426838638698,1,0,,,
1714161065.7249599,control,-0.04326426838638698,1,0,,,
1714161065.7437813,control,-0.04326426838638698,1,0,,,
1714161065.7593172,control,-0.04326426838638698,1,0,,,
1714161065.7758405,control,-0.04326426838638698,1,0,,,
1714161065.7909696,control,-0.04326426838638698,1,0,,,
1714161065.8069916,control,-0.04326426838638698,1,0,,,
1714161065.8342552,control,-0.04326426838638698,1,0,,,
1714161065.8393855,control,-0.04326426838638698,1,0,,,
1714161065.855414,control,-0.04326426838638698,1,0,,,
1714161065.8718083,control,-0.04326426838638698,1,0,,,
1714161065.8870552,control,-0.04326426838638698,1,0,,,
1714161065.9031456,control,-0.04326426838638698,1,0,,,
1714161065.9195051,control,-0.04326426838638698,1,0,,,
1714161065.9470356,control,-0.04326426838638698,1,0,,,
1714161065.9520392,control,-0.04326426838638698,1,0,,,
1714161065.9790115,control,-0.04326426838638698,1,0,,,
1714161065.9840226,control,-0.04326426838638698,1,0,,,
1714161065.9996243,control,-0.04326426838638698,1,0,,,
1714161066.0151293,control,-0.04326426838638698,1,0,,,
1714161066.0318067,control,-0.04326426838638698,1,0,,,
1714161066.0478294,control,-0.04326426838638698,1,0,,,
1714161066.0639105,control,-0.04326426838638698,1,0,,,
1714161066.07962,control,-0.04326426838638698,1,0,,,
1714161066.177749,control,-0.04326426838638698,1,0,,,
1714161066.1807494,control,-0.04326426838638698,1,0,,,
1714161066.1961272,control,-0.04326426838638698,1,0,,,
1714161066.2128308,control,-0.04326426838638698,1,0,,,
1714161066.2288835,control,-0.04326426838638698,1,0,,,
1714161066.2447722,control,-0.04326426838638698,1,0,,,
1714161066.2718208,control,-0.04326426838638698,1,0,,,
1714161066.27634,control,-0.04326426838638698,1,0,,,
1714161066.2928574,control,-0.04326426838638698,1,0,,,
1714161066.319975,control,-0.04326426838638698,1,0,,,
1714161066.3255217,control,-0.04326426838638698,1,0,,,
1714161066.353186,control,-0.04326426838638698,1,0,,,
1714161066.3583412,control,-0.04326426838638698,1,0,,,
1714161066.3733597,control,-0.04326426838638698,1,0,,,
1714161066.3889866,control,-0.04326426838638698,1,0,,,
1714161066.4050007,control,-0.04326426838638698,1,0,,,
1714161066.4214118,control,-0.04326426838638698,1,0,,,
1714161066.436953,control,-0.04326426838638698,1,0,,,
1714161066.4529939,control,-0.043398797852400806,1,0,,,
1714161066.468979,control,-0.04363422819372377,1,0,,,
1714161066.496657,control,-0.04410510338644342,0.9829169250097677,0,,,
1714161066.5016694,control,-0.044811452842987834,0.9645336047683365,0,,,
1714161066.5292165,control,-0.04686348547803667,0.9457942922511292,0,,,
1714161066.535215,control,-0.047435432863971026,0.9430873774794483,0,,,
1714161066.5623434,control,-0.050531224366001395,0.9349209036999581,0,,,
1714161066.5669322,control,-0.05103606303456655,0.9349209036999581,0,,,
1714161066.582347,control,-0.05275271014343828,0.9349209036999581,0,,,
1714161066.598023,control,-0.054200319816194865,0.9349209036999581,0,,,
1714161066.614164,control,-0.05551346386348924,0.9349209036999581,0,,,
1714161066.630543,control,-0.05638899899705567,0.9403728696690115,0,,,
1714161066.6465697,control,-0.05679312112266575,0.9430873774794483,0,,,
1714161066.6739898,control,-0.05692783260055318,0.9457942922511292,0,,,
1714161066.6791203,control,-0.05692783260055318,0.9457942922511292,0,,,
1714161066.7060678,control,-0.05692783260055318,0.9484936563441855,0,,,
1714161066.7100668,control,-0.05692783260055318,0.9511855117652559,0,,,
1714161066.7375498,control,-0.05692783260055318,0.9538699001714078,0,,,
1714161066.7425568,control,-0.05692783260055318,0.9538699001714078,0,,,
1714161066.7693458,control,-0.05692783260055318,0.9565468628740066,0,,,
1714161066.7748675,control,-0.05692783260055318,0.9565468628740066,0,,,
1714161066.7903955,control,-0.05692783260055318,0.9565468628740066,0,,,
1714161066.8061302,control,-0.05692783260055318,0.9592164408425293,0,,,
1714161066.8222659,control,-0.05692783260055318,0.9592164408425293,0,,,
1714161066.8388772,control,-0.05692783260055318,0.9592164408425293,0,,,
1714161066.8539429,control,-0.05692783260055318,0.9592164408425293,0,,,
1714161066.8711212,control,-0.05675944357441856,0.9592164408425293,0,,,
1714161066.8867006,control,-0.05642267513781505,0.9592164408425293,0,,,
1714161066.9020982,control,-0.05588387214199886,0.9592164408425293,0,,,
1714161066.9188788,control,-0.05517674224522091,0.9592164408425293,0,,,
1714161066.934123,control,-0.054200319816194865,0.9592164408425293,0,,,
1714161066.9509041,control,-0.05295468881810898,0.9592164408425293,0,,,
1714161067.0540462,control,-0.051574586221223545,0.9592164408425293,0,,,
1714161067.0575771,control,-0.039632547665627106,0.9538699001714078,0,,,
1714161067.0728226,control,-0.03872478428145214,0.9511855117652559,0,,,
1714161067.0890167,control,-0.03788431947818652,0.9511855117652559,0,,,
1714161067.104025,control,-0.03734645012503185,0.9511855117652559,0,,,
1714161067.120046,control,-0.03704390811635083,0.9511855117652559,0,,,
1714161067.1360683,control,-0.03687583215233475,0.9511855117652559,0,,,
1714161067.152587,control,-0.03670775826891346,0.9565468628740066,0,,,
1714161067.1682327,control,-0.03647245830941864,0.9592164408425293,0,,,
1714161067.1837413,control,-0.03600187046405786,0.9645336047683365,0,,,
1714161067.200643,control,-0.035296018488791915,0.972454970143269,0,,,
1714161067.2166622,control,-0.03428771928136543,0.985514836368376,0,,,
1714161067.2328107,control,-0.033245883228401524,1,0,,,
1714161067.260343,control,-0.03159925624327326,1,0,,,
1714161067.265642,control,-0.031263231241533455,1,0,,,
1714161067.2811654,control,-0.030423199427900956,1,0,,,
1714161067.2971535,control,-0.029415217767973532,1,0,,,
1714161067.3151174,control,-0.02820571842357765,1,0,,,
1714161067.3416176,control,-0.026626773384466784,1,0,,,
1714161067.3461304,control,-0.026257252503855025,1,0,,,
1714161067.3622136,control,-0.025451049862057578,1,0,,,
1714161067.3785768,control,-0.02491359986652772,1,0,,,
1714161067.3940856,control,-0.024577700943110785,1,0,,,
1714161067.4101129,control,-0.024409753564643737,1,0,,,
1714161067.426131,control,-0.02427539665318011,1,0,,,
1714161067.44229,control,-0.02424180756236416,1,0,,,
1714161067.458223,control,-0.02420821852621652,1,0,,,
1714161067.4742343,control,-0.024174629544661354,1,0,,,
1714161067.490251,control,-0.0240402741628487,1,0,,,
1714161067.5189855,control,-0.02357003712553076,1,0,,,
1714161067.523984,control,-0.02336851016791344,1,0,,,
1714161067.5513203,control,-0.0225288347450785,1,0,,,
1714161067.5568357,control,-0.022360903508514624,1,0,,,
1714161067.5832074,control,-0.021151835238755967,1,0,,,
1714161067.5892904,control,-0.021017498200042704,1,0,,,
1714161067.616,control,-0.02024507479305027,1,0,,,
1714161067.6209993,control,-0.02011074277834633,1,0,,,
1714161067.6365638,control,-0.020077159888219637,1,0,,,
1714161067.652077,control,-0.02011074277834633,1,0,,,
1714161067.6687868,control,-0.0206144916139573,1,0,,,
1714161067.6849203,control,-0.02175636142628417,1,0,,,
1714161067.7002468,control,-0.023334922526524735,1,0,,,
1714161067.7281501,control,-0.02750021544345724,0.9349209036999581,0,,,
1714161067.7325413,control,-0.028272910635808248,0.9183782547191166,0,,,
1714161067.7601748,control,-0.035800194845844464,0.8188873073925946,0,,,
1714161067.765258,control,-0.0370102927566436,0.803353725078269,0,,,
1714161067.7929337,control,-0.04534965377475155,0.7182964533433602,0,,,
1714161067.7978878,control,-0.04709898949896194,0.6940588722660791,0,,,
1714161067.813399,control,-0.05090143686312336,0.6325381093670247,0,,,
1714161067.8290572,control,-0.0550420570948098,0.5370500470588806,0,,,
1714161067.8450778,control,-0.05901612690086263,0.39761741078017865,0,,,
1714161067.8616028,control,-0.06295835274852907,0.24601766394382407,0,,,
1714161067.8771296,control,-0.06666649529663282,0.11275610259628221,0,,,
1714161067.893238,control,-0.06997164826089206,0,0,,,
1714161067.909331,control,-0.07287334003223166,0,0,,,
1714161067.9250283,control,-0.07513480415404199,0,0,,,
1714161067.9425857,control,-0.07722818279208195,0,0,,,
1714161067.9701505,control,-0.0798289631014338,0,0,,,
1714161067.9756546,control,-0.08036951852297607,0,0,,,
1714161068.0026858,control,-0.08259980646138837,0,0,,,
1714161068.00721,control,-0.0830054004236392,0,0,,,
1714161068.023744,control,-0.08388428057422047,0,0,,,
1714161068.0396993,control,-0.08452662045942605,0,0,,,
1714161068.0552025,control,-0.08520284254538574,0,0,,,
1714161068.071918,control,-0.08631877843192759,0,0,,,
1714161068.0871804,control,-0.08784085370475174,0,0,,,
1714161068.1036932,control,-0.08926182164335818,0,0,,,
1714161068.1197107,control,-0.09081853050246048,0,0,,,
1714161068.1349883,control,-0.09257881458631685,0,0,,,
1714161068.1515026,control,-0.09467835946794653,0,0,,,
1714161068.1789632,control,-0.09708369464144351,0,0,,,
1714161068.1839628,control,-0.10003259810086759,0,0,,,
1714161068.21059,control,-0.10423862453990836,0,0,,,
1714161068.2175698,control,-0.10559617896970581,0,0,,,
1714161068.2332063,control,-0.10756531815976207,0,0,,,
1714161068.2537675,control,-0.11072445941784649,0,0,,,
1714161068.2691016,control,-0.11238982798309478,0,0,,,
1714161068.2861578,control,-0.1138177765784269,0,0,,,
1714161068.301668,control,-0.11449791284251473,0,0,,,
1714161068.3177035,control,-0.11470197408495221,0,0,,,
1714161068.4260259,control,-0.11470197408495221,0,0,,,
1714161068.4290264,control,-0.10423862453990836,0,0,,,
1714161068.444981,control,-0.10166031378670354,0,0,,,
1714161068.4601066,control,-0.09898164443062633,0,0,,,
1714161068.47604,control,-0.09640602400843463,0.07973353318972798,0,,,
1714161068.5038846,control,-0.09207098241846429,0.22311767941076277,0,,,
1714161068.5079799,control,-0.0914616459466242,0.24601766394382407,0,,,
1714161068.5360205,control,-0.08692756051653439,0.4262150514850285,0,,,
1714161068.5515487,control,-0.08422234559667137,0.5328526635271087,0,,,
1714161068.5661063,control,-0.08104527846765697,0.6547006367625572,0,,,
1714161068.5941892,control,-0.07513480415404199,0.855181113467795,0,,,
1714161068.5986977,control,-0.07422337721562769,0.8699107950992607,0,,,
1714161068.6136596,control,-0.07047767151962943,0.9511855117652559,0,,,
1714161068.6306577,control,-0.06666649529663282,1,0,,,
1714161068.6466815,control,-0.06295835274852907,1,0,,,
1714161068.6622021,control,-0.05921824683427097,1,0,,,
1714161068.6780095,control,-0.05551346386348924,1,0,,,
1714161068.694177,control,-0.052045818473932325,1,0,,,
1714161068.7100546,control,-0.04868036707940604,1,0,,,
1714161068.7260787,control,-0.045686042651779,1,0,,,
1714161068.7432847,control,-0.04306247711658835,1,0,,,
1714161068.77002,control,-0.039498060122139925,1,0,,,
1714161068.7750213,control,-0.039094606031514316,1,0,,,
1714161068.8021877,control,-0.037312834010148496,1,0,,,
1714161068.8072596,control,-0.03717837039198201,1,0,,,
1714161068.8333805,control,-0.036842217209507186,1,0,,,
1714161068.8388915,control,-0.036842217209507186,1,0,,,
1714161068.8540144,control,-0.036842217209507186,1,0,,,
1714161068.8701572,control,-0.036842217209507186,1,0,,,
1714161068.886188,control,-0.036842217209507186,1,0,,,
1714161068.9022098,control,-0.036842217209507186,1,0,,,
1714161068.91825,control,-0.036842217209507186,1,0,,,
1714161068.9342709,control,-0.036842217209507186,1,0,,,
1714161068.9508827,control,-0.036842217209507186,1,0,,,
1714161068.966923,control,-0.036842217209507186,1,0,,,
1714161068.982427,control,-0.036842217209507186,1,0,,,
1714161069.009611,control,-0.036842217209507186,1,0,,,
1714161069.0148222,control,-0.036842217209507186,1,0,,,
1714161069.0410817,control,-0.036842217209507186,1,0,,,
1714161069.0461192,control,-0.036842217209507186,1,0,,,
1714161069.0623567,control,-0.036842217209507186,1,0,,,
1714161069.0781288,control,-0.036842217209507186,1,0,,,
1714161069.0936365,control,-0.036842217209507186,1,0,,,
1714161069.1101792,control,-0.036842217209507186,1,0,,,
1714161069.1262004,control,-0.036842217209507186,1,0,,,
1714161069.1419978,control,-0.036842217209507186,1,0,,,
1714161069.1587338,control,-0.036842217209507186,1,0,,,
1714161069.1742797,control,-0.036842217209507186,1,0,,,
1714161069.1903076,control,-0.036842217209507186,1,0,,,
1714161069.2059622,control,-0.036842217209507186,1,0,,,
1714161069.2251658,control,-0.03667414374106381,1,0,,,
1714161069.2419562,control,-0.036169935712809326,1,0,,,
1714161069.2689447,control,-0.03455659217684419,1,0,,,
1714161069.2729502,control,-0.03425411051838716,1,0,,,
1714161069.2895908,control,-0.032741795028349285,1,0,,,
1714161069.3056092,control,-0.031128823219929932,1,0,,,
1714161069.3241348,control,-0.028575278756348417,1,0,,,
1714161069.3391523,control,-0.026257252503855025,1,0,,,
1714161069.3552709,control,-0.023166985107378246,1,0,,,
1714161069.3713539,control,-0.019405511491212953,1,0,,,
1714161069.3882945,control,-0.01373072119750794,1,0,,,
1714161069.403527,control,-0.007956100483298777,1,0,,,
1714161069.4204488,control,0.0018798850269796355,1,0,,,
1714161069.4465623,control,0.020480157579111802,1,0,,,
1714161069.4525614,control,0.024779239627186606,1,0,,,
1714161069.471148,control,0.03711113908665382,1,0,,,
1714161069.4867232,control,0.04746907778854049,1,0,,,
1714161069.5022407,control,0.05736565915263228,1,0,,,
1714161069.5180063,control,0.0672734534005999,1,0,,,
1714161069.5360334,control,0.0780387025958004,1,0,,,
1714161069.563068,control,0.09345916932947161,1,0,,,
1714161069.567939,control,0.09718535284104537,1,0,,,
1714161069.583549,control,0.10644484569259445,1,0,,,
1714161069.599373,control,0.11851286664136544,1,0,,,
1714161069.6149647,control,0.13211756616821047,1,0,,,
1714161069.6315305,control,0.14673054989953943,1,0,,,
1714161069.6471486,control,0.1621974449105759,1,0,,,
1714161069.6634693,control,0.17812127878140532,1,0,,,
1714161069.679084,control,0.1937151695829883,1,0,,,
1714161069.695366,control,0.21066220277993442,1,0,,,
1714161069.7122517,control,0.22504387327680017,1,0,,,
1714161069.7278326,control,0.23660600912709778,1,0,,,
1714161069.7442746,control,0.24954736918498296,1,0,,,
1714161069.7713063,control,0.2650094553963855,1,0,,,
1714161069.7768161,control,0.26820949364320584,1,0,,,
1714161069.8040233,control,0.2827648239175598,1,0,,,
1714161069.8091896,control,0.28563099885219356,1,0,,,
1714161069.8252246,control,0.2924328975604873,1,0,,,
1714161069.8413289,control,0.2998451206399913,1,0,,,
1714161069.857352,control,0.3066999678831962,1,0,,,
1714161069.8733919,control,0.313102013086361,1,0,,,
1714161069.8894207,control,0.31904662823334184,1,0,,,
1714161069.9179552,control,0.32973199908137985,1,0,,,
1714161069.9219546,control,0.33118417174381554,1,0,,,
1714161069.9479983,control,0.34138502842301016,1,0,,,
1714161069.952998,control,0.3431476159515669,1,0,,,
1714161069.983487,control,0.3594393932599006,1,0,,,
1714161069.986999,control,0.36179135187952494,1,0,,,
1714161070.002667,control,0.3709675722530178,1,0,,,
1714161070.0183623,control,0.37946920124912464,1,0,,,
1714161070.0348794,control,0.38720818021594866,1,0,,,
1714161070.050811,control,0.3944057201314886,1,0,,,
1714161070.06635,control,0.401132087643722,1,0,,,
1714161070.0828595,control,0.4070287301401015,1,0,,,
1714161070.0980308,control,0.4119677495723291,1,0,,,
1714161070.113539,control,0.41601799867354616,1,0,,,
1714161070.1301727,control,0.4195271207040712,1,0,,,
1714161070.1576605,control,0.42447055716529764,1,0,,,
1714161070.1626651,control,0.42565959683991134,1,0,,,
1714161070.1892016,control,0.43014749934457724,1,0,,,
1714161070.1942012,control,0.43118218275603964,1,0,,,
1714161070.2232685,control,0.43644726050878196,1,0,,,
1714161070.2297912,control,0.4375267112693297,1,0,,,
1714161070.2453477,control,0.44036936158923007,1,0,,,
1714161070.2723908,control,0.4465959727982843,1,0,,,
1714161070.2779067,control,0.44760296724462956,1,0,,,
1714161070.2934198,control,0.4516385360649368,1,0,,,
1714161070.320966,control,0.4574307293959963,1,0,,,
1714161070.3254757,control,0.45828346760286176,1,0,,,
1714161070.3531873,control,0.46410493540574876,1,0,,,
1714161070.3577235,control,0.4649620148913555,1,0,,,
1714161070.3752475,control,0.46835503375786397,1,0,,,
1714161070.39088,control,0.47110044044899607,1,0,,,
1714161070.4068933,control,0.4738516712410318,1,0,,,
1714161070.4229534,control,0.47656757846020015,1,0,,,
1714161070.437984,control,0.47957822535936817,1,0,,,
1714161070.4655178,control,0.4848743074686884,1,0,,,
1714161070.4705217,control,0.48570380944150604,1,0,,,
1714161070.4982176,control,0.49085885016025177,1,0,,,
1714161070.502218,control,0.49152554779845387,1,0,,,
1714161070.5304065,control,0.4957840506819483,1,0,,,
1714161070.5349116,control,0.49620232771181727,1,0,,,
1714161070.561617,control,0.49754175157936303,1,0,,,
1714161070.566667,control,0.49754175157936303,1,0,,,
1714161070.5939753,control,0.49754175157936303,1,0,,,
1714161070.5979943,control,0.49754175157936303,1,0,,,
1714161070.6140747,control,0.4974998729277968,1,0,,,
1714161070.6303482,control,0.4971230279893223,1,0,,,
1714161070.6463718,control,0.4964533608166331,1,0,,,
1714161070.6628847,control,0.49515689609669933,1,0,,,
1714161070.6784651,control,0.49327730610007164,1,0,,,
1714161070.6935823,control,0.4904423426492386,1,0,,,
1714161070.7109585,control,0.48640931156274825,1,0,,,
1714161070.7267103,control,0.48106553256394385,1,0,,,
1714161070.7422352,control,0.47422168578810714,1,0,,,
1714161070.7580004,control,0.4654111855087883,1,0,,,
1714161070.774888,control,0.454551725685976,1,0,,,
1714161070.8010778,control,0.4335728911821202,1,0,,,
1714161070.806186,control,0.42808045993148214,1,0,,,
1714161070.8342166,control,0.400508687889096,1,0,,,
1714161070.838728,control,0.3964242565469338,1,0,,,
1714161070.8655152,control,0.3676487116122806,1,0,,,
1714161070.8705199,control,0.3633866263866938,0.9984007977363134,0,,,
1714161070.8865423,control,0.34664092818976816,0.9645336047683365,0,,,
1714161070.9020586,control,0.3300297782673469,0.9071905994812317,0,,,
1714161070.9180908,control,0.31439259665031893,0.8522080807149879,0,,,
1714161070.9342067,control,0.29882096017568743,0.8002168620402252,0,,,
1714161070.9502769,control,0.28374391702388035,0.7385990455456733,0,,,
1714161070.9663608,control,0.26849738791362865,0.6691986068000356,0,,,
1714161070.982874,control,0.2536164955523041,0.5740290754661139,0,,,
1714161071.0093281,control,0.23837914637011823,0.40724416412853137,0,,,
1714161071.0149078,control,0.22328106516491283,0.18771842223633461,0,,,
1714161071.0418663,control,0.19782817439984987,0,0,,,
1714161071.04594,control,0.1942376562567435,0,0,,,
1714161071.0734944,control,0.16892291501516118,0,0,,,
1714161071.0780113,control,0.16533418440121259,0,0,,,
1714161071.0934813,control,0.15115706838817952,0,0,,,
1714161071.1101067,control,0.13765475619604128,0,0,,,
1714161071.1268363,control,0.1244742304189838,0,0,,,
1714161071.142936,control,0.11187995630336775,0,0,,,
1714161071.1588793,control,0.09962575149498536,0,0,,,
1714161071.1749067,control,0.08807765709923966,0,0,,,
1714161071.1900775,control,0.07712687492993206,0,0,,,
1714161071.2067075,control,0.06639675186177395,0,0,,,
1714161071.222232,control,0.05652370432582147,0,0,,,
1714161071.2384517,control,0.04733449873286072,0,0,,,
1714161071.2549741,control,0.0391618474939383,0,0,,,
1714161071.270593,control,0.032405745478218874,0,0,,,
1714161071.2866204,control,0.027063489256048873,0,0,,,
