timestamp,event_type,steering,throttle,brake,instruction,user_response,button_pressed
1714160635.955466,control,0.0,0.6212635577612914,0.6212635577612914,,,
1714160635.9704885,control,0.0,0.6212635577612914,0.6212635577612914,,,
1714160635.9870222,control,0.0,0.6212635577612914,0.6212635577612914,,,
1714160636.0145829,control,0.0,0.6212635577612914,0.6212635577612914,,,
1714160636.0185752,control,0.0,0.6212635577612914,0.6212635577612914,,,
1714160636.045126,control,0.0,0.6212635577612914,0.6212635577612914,,,
1714160636.0516522,control,0.0,0.6212635577612914,0.6212635577612914,,,
1714160636.0661652,control,0.0,0.6212635577612914,0.6212635577612914,,,
1714160636.0822077,control,0.0,0.6212635577612914,0.6212635577612914,,,
1714160636.0987175,control,0.0,0.6212635577612914,0.6212635577612914,,,
1714160636.125257,control,0.0,0.6212635577612914,0.6212635577612914,,,
1714160636.1307807,control,0.0,0.6212635577612914,0.6212635577612914,,,
1714160636.1463025,control,0.0,0.6212635577612914,0.6212635577612914,,,
1714160636.1625361,control,0.0,0.6212635577612914,0.6212635577612914,,,
1714160636.1790638,control,0.0,0.6212635577612914,0.6212635577612914,,,
1714160636.205634,control,0.0,0.6212635577612914,0.6212635577612914,,,
1714160636.2111478,control,0.0,0.6212635577612914,0.6212635577612914,,,
1714160636.2266614,control,0.0,0.6212635577612914,0.6212635577612914,,,
1714160636.242718,control,0.0,0.6212635577612914,0.6212635577612914,,,
1714160636.258247,control,0.0,0.6212635577612914,0.6212635577612914,,,
1714160636.274278,control,0.0,0.6212635577612914,0.6212635577612914,,,
1714160636.2903,control,0.0,0.6212635577612914,0.6212635577612914,,,
1714160636.3078222,control,0.0,0.6212635577612914,0.6212635577612914,,,
1714160636.3353717,control,0.0,0.6212635577612914,0.6212635577612914,,,
1714160636.340895,control,0.0,0.6212635577612914,0.6212635577612914,,,
1714160636.3689227,control,0.0,0.6212635577612914,0.6212635577612914,,,
1714160636.375024,control,0.0,0.6212635577612914,0.6212635577612914,,,
1714160636.401581,control,0.0,0.6212635577612914,0.6212635577612914,,,
1714160636.4075756,control,0.0,0.6212635577612914,0.6212635577612914,,,
1714160636.4361145,control,0.0,0.6212635577612914,0.6212635577612914,,,
1714160636.4412673,control,0.0,0.6212635577612914,0.6212635577612914,,,
1714160636.4573357,control,0.0,0.6212635577612914,0.6212635577612914,,,
1714160636.472994,control,0.0,0.6212635577612914,0.6212635577612914,,,
1714160636.4996603,control,0.0,0.6212635577612914,0.6212635577612914,,,
1714160636.5051467,control,0.0,0.6212635577612914,0.6212635577612914,,,
1714160636.5316882,control,0.0,0.6212635577612914,0.6212635577612914,,,
1714160636.5386875,control,0.0,0.6212635577612914,0.6212635577612914,,,
1714160636.5657618,control,0.0,0.6212635577612914,0.6212635577612914,,,
1714160636.5712783,control,0.0,0.6212635577612914,0.6212635577612914,,,
1714160636.598316,control,0.0,0.6212635577612914,0.6212635577612914,,,
1714160636.6028306,control,0.0,0.6212635577612914,0.6212635577612914,,,
1714160636.6298983,control,0.0,0.6212635577612914,0.6212635577612914,,,
1714160636.6344178,control,0.0,0.6212635577612914,0.6212635577612914,,,
1714160636.6504529,control,0.0,0.6212635577612914,0.6212635577612914,,,
1714160636.6669834,control,0.0,0.6212635577612914,0.6212635577612914,,,
1714160636.6934092,control,0.0,0.6212635577612914,0.6212635577612914,,,
1714160636.6984117,control,0.0,0.6212635577612914,0.6212635577612914,,,
1714160636.725958,control,0.0,0.6212635577612914,0.6212635577612914,,,
1714160636.731469,control,0.0,0.6212635577612914,0.6212635577612914,,,
1714160636.7469823,control,0.0,0.6212635577612914,0.6212635577612914,,,
1714160636.7660232,control,0.0,0.6212635577612914,0.6212635577612914,,,
1714160636.782049,control,0.0,0.6212635577612914,0.6212635577612914,,,
1714160636.798571,control,0.0,0.6212635577612914,0.6212635577612914,,,
1714160636.814608,control,0.0,0.6212635577612914,0.6212635577612914,,,
1714160636.8306284,control,0.0,0.6212635577612914,0.6212635577612914,,,
1714160636.8471506,control,0.0,0.6212635577612914,0.6212635577612914,,,
1714160636.8742332,control,0.0,0.6212635577612914,0.6212635577612914,,,
1714160636.8782318,control,0.0,0.6212635577612914,0.6212635577612914,,,
1714160636.9067776,control,0.0,0.6212635577612914,0.6212635577612914,,,
1714160636.9112923,control,0.0,0.6212635577612914,0.6212635577612914,,,
1714160636.9373472,control,0.0,0.6212635577612914,0.6212635577612914,,,
1714160636.9438627,control,0.0,0.6212635577612914,0.6212635577612914,,,
1714160636.9588819,control,0.0,0.6212635577612914,0.6212635577612914,,,
1714160636.9749103,control,0.0,0.6212635577612914,0.6212635577612914,,,
1714160636.9909506,control,0.0,0.6212635577612914,0.6212635577612914,,,
1714160637.006462,control,0.0,0.6212635577612914,0.6212635577612914,,,
1714160637.0225105,control,0.0,0.6212635577612914,0.6212635577612914,,,
1714160637.0390267,control,0.0,0.6212635577612914,0.6212635577612914,,,
1714160637.0545845,control,0.0,0.6212635577612914,0.6212635577612914,,,
1714160637.0700982,control,0.0,0.6212635577612914,0.6212635577612914,,,
1714160637.0867906,control,0.0,0.6212635577612914,0.6212635577612914,,,
1714160637.1028206,control,0.0,0.6212635577612914,0.6212635577612914,,,
1714160637.11834,control,0.0,0.6212635577612914,0.6212635577612914,,,
1714160637.1343691,control,0.0,0.6212635577612914,0.6212635577612914,,,
1714160637.1503875,control,0.0,0.6212635577612914,0.6212635577612914,,,
1714160637.1664119,control,0.0,0.6212635577612914,0.6212635577612914,,,
1714160637.1824377,control,0.0,0.6212635577612914,0.6212635577612914,,,
1714160637.2099848,control,0.0,0.6212635577612914,0.6212635577612914,,,
1714160637.2149944,control,0.0,0.6212635577612914,0.6212635577612914,,,
1714160637.2310238,control,0.0,0.6212635577612914,0.6212635577612914,,,
1714160637.2465363,control,0.0,0.6212635577612914,0.6212635577612914,,,
1714160637.2746043,control,0.0,0.6212635577612914,0.6212635577612914,,,
1714160637.2786052,control,0.0,0.6212635577612914,0.6212635577612914,,,
1714160637.3051393,control,0.0,0.6212635577612914,0.6212635577612914,,,
1714160637.3106487,control,0.0,0.6212635577612914,0.6212635577612914,,,
1714160637.337721,control,0.0,0.6212635577612914,0.6212635577612914,,,
1714160637.3422346,control,0.0,0.6212635577612914,0.6212635577612914,,,
1714160637.3697827,control,0.0,0.6212635577612914,0.6212635577612914,,,
1714160637.3740547,control,0.0,0.6212635577612914,0.6212635577612914,,,
1714160637.4015913,control,0.0,0.6212635577612914,0.6212635577612914,,,
1714160637.4076786,control,0.0,0.6212635577612914,0.6212635577612914,,,
1714160637.424057,control,0.0,0.6212635577612914,0.6212635577612914,,,
1714160637.4385717,control,0.0,0.6212635577612914,0.6212635577612914,,,
1714160637.4666414,control,0.0,0.6212635577612914,0.6212635577612914,,,
1714160637.4721568,control,0.0,0.6212635577612914,0.6212635577612914,,,
1714160637.4981973,control,0.005136153561758657,0,0,,,
1714160637.5057132,control,0.005136153561758657,0,0,,,
1714160637.532248,control,0.005136153561758657,0,0,,,
1714160637.5382469,control,0.005136153561758657,0,0,,,
1714160637.5643067,control,0.005136153561758657,0.024407952688081158,0,,,
1714160637.5698125,control,0.005136153561758657,0.03152288171889883,0,,,
1714160637.5968494,control,0.005136153561758657,0.06620238700686021,0,,,
1714160637.6013625,control,0.005136153561758657,0.07973353318972798,0,,,
1714160637.6284046,control,0.005136153561758657,0.11275610259628221,0,,,
1714160637.6339214,control,0.005136153561758657,0.11922751467497528,0,,,
1714160637.6609712,control,0.005136153561758657,0.1446888937210118,0,,,
1714160637.6659722,control,0.005136153561758657,0.1446888937210118,0,,,
1714160637.6925306,control,0.005136153561758657,0.19370895502001195,0,,,
1714160637.697519,control,0.005136153561758657,0.20557990494151435,0,,,
1714160637.7260587,control,0.005136153561758657,0.2516589786340906,0,,,
1714160637.7305665,control,0.005136153561758657,0.2628438985038368,0,,,
1714160637.7577558,control,0.005136153561758657,0.31165567933855187,0,,,
1714160637.7632732,control,0.005136153561758657,0.32738739779694637,0,,,
1714160637.790811,control,0.005136153561758657,0.3731039454650429,0,,,
1714160637.795812,control,0.005136153561758657,0.3878751353819707,0,,,
1714160637.8118386,control,0.005136153561758657,0.42150708111974344,0,,,
1714160637.827349,control,0.005136153561758657,0.44482117906924334,0,,,
1714160637.8433862,control,0.005136153561758657,0.4675867878551181,0,,,
1714160637.8599155,control,0.005136153561758657,0.4854213658761737,0,,,
1714160637.8754375,control,0.005136153561758657,0.5072787020410159,0,,,
1714160637.8914604,control,0.005136153561758657,0.5158786685404688,0,,,
1714160637.9184878,control,0.005136153561758657,0.5286369949748542,0,,,
1714160637.923403,control,0.005136153561758657,0.5328526635271087,0,,,
1714160637.9399216,control,0.005136153561758657,0.5453905887593558,0,,,
1714160637.955469,control,0.005136153561758657,0.5536598593076767,0,,,
1714160637.9715075,control,0.005136153561758657,0.5577681465172044,0,,,
1714160637.9880202,control,0.005136153561758657,0.5618590664357805,0,,,
1714160638.015558,control,0.005136153561758657,0.5780519701692741,0,,,
1714160638.0210838,control,0.005136153561758657,0.5820735872329712,0,,,
1714160638.0481062,control,0.005136153561758657,0.5860632474304233,0,,,
1714160638.053124,control,0.005136153561758657,0.5900365268213725,0,,,
1714160638.068647,control,0.005136153561758657,0.5979344774002306,0,,,
1714160638.0846782,control,0.005136153561758657,0.6096618436644565,0,,,
1714160638.1007092,control,0.005136153561758657,0.6174018699744762,0,,,
1714160638.1162205,control,0.005136153561758657,0.6212635577612914,0,,,
1714160638.1322527,control,0.005136153561758657,0.6399821568419266,0,,,
1714160638.148765,control,0.005136153561758657,0.6547006367625572,0,,,
1714160638.1653168,control,0.005136153561758657,0.6691986068000356,0,,,
1714160638.1803315,control,0.005136153561758657,0.6799313016534824,0,,,
1714160638.1968534,control,0.005136153561758657,0.7079831614159194,0,,,
1714160638.2128813,control,0.005136153561758657,0.7217099362473083,0,,,
1714160638.2283988,control,0.005136153561758657,0.7285009914843854,0,,,
1714160638.244419,control,0.005136153561758657,0.7452730126871808,0,,,
1714160638.26096,control,0.005136153561758657,0.7650231145123714,0,,,
1714160638.2764792,control,0.005136153561758657,0.7779694132809515,0,,,
1714160638.304021,control,0.005136153561758657,0.80648045283843,0,,,
1714160638.3090208,control,0.005136153561758657,0.8095971106044709,0,,,
1714160638.3250628,control,0.005136153561758657,0.8219643255649756,0,,,
1714160638.3410158,control,0.005136153561758657,0.8341754831720845,0,,,
1714160638.3675468,control,0.005136153561758657,0.8492258860594036,0,,,
1714160638.373063,control,0.005136153561758657,0.855181113467795,0,,,
1714160638.3885763,control,0.005136153561758657,0.8669827402182236,0,,,
1714160638.4045978,control,0.005136153561758657,0.8786421752334822,0,,,
1714160638.420721,control,0.005136153561758657,0.8901628041524876,0,,,
1714160638.4477508,control,0.005136153561758657,0.9211550755624077,0,,,
1714160638.4522662,control,0.005136153561758657,0.9239239512708277,0,,,
1714160638.468335,control,0.005136153561758657,0.9403728696690115,0,,,
1714160638.4843671,control,0.005136153561758657,0.9538699001714078,0,,,
1714160638.5009058,control,0.005136153561758657,0.9645336047683365,0,,,
1714160638.5164225,control,0.005136153561758657,0.972454970143269,0,,,
1714160638.5324488,control,0.005136153561758657,0.9803120206108048,0,,,
1714160638.5490892,control,0.005136153561758657,0.9932669851660886,0,,,
1714160638.5646486,control,0.005136153561758657,0.9984007977363134,0,,,
1714160638.5806859,control,0.005136153561758657,1,0,,,
1714160638.5962327,control,0.005136153561758657,1,0,,,
1714160638.612261,control,0.005136153561758657,1,0,,,
1714160638.6287754,control,0.005136153561758657,1,0,,,
1714160638.6448083,control,0.005136153561758657,1,0,,,
1714160638.6598325,control,0.005136153561758657,1,0,,,
1714160638.6768043,control,0.005136153561758657,1,0,,,
1714160638.6928432,control,0.005136153561758657,1,0,,,
1714160638.7081845,control,0.005136153561758657,1,0,,,
1714160638.725981,control,0.005136153561758657,1,0,,,
1714160638.7410042,control,0.005136153561758657,1,0,,,
1714160638.7575808,control,0.005136153561758657,1,0,,,
1714160638.772361,control,0.005136153561758657,1,0,,,
1714160638.792412,control,0.005136153561758657,1,0,,,
1714160638.8081045,control,0.005136153561758657,1,0,,,
1714160638.8251486,control,0.005136153561758657,1,0,,,
1714160638.840171,control,0.005136153561758657,1,0,,,
1714160638.8572164,control,0.005136153561758657,1,0,,,
1714160638.8722308,control,0.005136153561758657,1,0,,,
1714160638.8887439,control,0.005136153561758657,1,0,,,
1714160638.9047923,control,0.005136153561758657,1,0,,,
1714160638.9207065,control,0.005136153561758657,1,0,,,
1714160638.9361355,control,0.005136153561758657,1,0,,,
1714160638.952578,control,0.005136153561758657,1,0,,,
1714160638.9686346,control,0.005136153561758657,1,0,,,
1714160638.98469,control,0.005136153561758657,1,0,,,
1714160639.0007315,control,0.005136153561758657,1,0,,,
1714160639.0162616,control,0.005136153561758657,0.9958372958401867,0,,,
1714160639.0322866,control,0.005136153561758657,0.9829169250097677,0,,,
1714160639.0488048,control,0.005136153561758657,0.972454970143269,0,,,
1714160639.0640924,control,0.005136153561758657,0.9645336047683365,0,,,
1714160639.0801091,control,0.005136153561758657,0.9511855117652559,0,,,
1714160639.0966327,control,0.005136153561758657,0.9376507261022167,0,,,
1714160639.1231725,control,0.005136153561758657,0.9128005943220526,0,,,
1714160639.1291723,control,0.005136153561758657,0.9071905994812317,0,,,
1714160639.1447773,control,0.005136153561758657,0.8930216582254509,0,,,
1714160639.1609893,control,0.005136153561758657,0.8901628041524876,0,,,
1714160639.1765113,control,0.005136153561758657,0.8872954793884136,0,,,
1714160639.192534,control,0.005136153561758657,0.8844196335872573,0,,,
1714160639.219785,control,0.005136153561758657,0.8844196335872573,0,,,
1714160639.2248058,control,0.005136153561758657,0.8844196335872573,0,,,
1714160639.2408462,control,0.005136153561758657,0.8844196335872573,0,,,
1714160639.2568781,control,0.005136153561758657,0.8844196335872573,0,,,
1714160639.2833636,control,0.005136153561758657,0.8844196335872573,0,,,
1714160639.2883666,control,0.005136153561758657,0.8844196335872573,0,,,
1714160639.3162935,control,0.005136153561758657,0.8815352159528578,0,,,
1714160639.3208208,control,0.005136153561758657,0.8815352159528578,0,,,
1714160639.3478575,control,0.005136153561758657,0.8815352159528578,0,,,
1714160639.3523772,control,0.005136153561758657,0.8815352159528578,0,,,
1714160639.3798463,control,0.005136153561758657,0.8786421752334822,0,,,
1714160639.3843632,control,0.005136153561758657,0.8786421752334822,0,,,
1714160639.400387,control,0.005136153561758657,0.8786421752334822,0,,,
1714160639.421419,control,0.005136153561758657,0.8728300172221422,0,,,
1714160639.4363592,control,0.005136153561758657,0.8699107950992607,0,,,
1714160639.453388,control,0.005136153561758657,0.8669827402182236,0,,,
1714160639.4690828,control,0.005136153561758657,0.8669827402182236,0,,,
1714160639.4962616,control,0.005136153561758657,0.8640457989658082,0,,,
1714160639.501773,control,0.005136153561758657,0.8640457989658082,0,,,
1714160639.5287995,control,-0.009198257448911722,0.8610999172391722,0,,,
1714160639.533316,control,-0.009500407883314273,0.8610999172391722,0,,,
1714160639.561379,control,-0.011078334038748406,0.8610999172391722,0,,,
1714160639.5663822,control,-0.011313348846069202,0.8610999172391722,0,,,
1714160639.5929291,control,-0.01366356992960088,0.8581450404398726,0,,,
1714160639.5979319,control,-0.013999327513279185,0.8581450404398726,0,,,
1714160639.6244729,control,-0.016618350863306774,0.855181113467795,0,,,
1714160639.629977,control,-0.016920559850737475,0.855181113467795,0,,,
1714160639.656527,control,-0.01920402041239765,0.855181113467795,0,,,
1714160639.6620421,control,-0.01943909349037435,0.855181113467795,0,,,
1714160639.689068,control,-0.0209503299653303,0.855181113467795,0,,,
1714160639.6935804,control,-0.021151835238755967,0.855181113467795,0,,,
1714160639.7090898,control,-0.021454096373311717,0.855181113467795,0,,,
1714160639.7251148,control,-0.021487681184684845,0.855181113467795,0,,,
1714160639.7411427,control,-0.021487681184684845,0.855181113467795,0,,,
1714160639.757799,control,-0.021487681184684845,0.855181113467795,0,,,
1714160639.7738292,control,-0.021487681184684845,0.855181113467795,0,,,
1714160639.7898548,control,-0.021487681184684845,0.855181113467795,0,,,
1714160639.807373,control,-0.021487681184684845,0.855181113467795,0,,,
1714160639.8234153,control,-0.02162202091544845,0.855181113467795,0,,,
1714160639.8404348,control,-0.021823531975745096,0.855181113467795,0,,,
1714160639.85546,control,-0.022159387687737283,0.855181113467795,0,,,
1714160639.871181,control,-0.022696767251674223,0.855181113467795,0,,,
1714160639.887688,control,-0.023334922526524735,0.855181113467795,0,,,
1714160639.903729,control,-0.0240402741628487,0.855181113467795,0,,,
1714160639.9197452,control,-0.024980780323005727,0.855181113467795,0,,,
1714160639.9352608,control,-0.026257252503855025,0.855181113467795,0,,,
1714160639.9513044,control,-0.027701784901546476,0.855181113467795,0,,,
1714160639.968326,control,-0.029045639563793482,0.855181113467795,0,,,
1714160639.9938812,control,-0.031162425119801714,0.855181113467795,0,,,
1714160639.999878,control,-0.03166646209666496,0.855181113467795,0,,,
1714160640.0161104,control,-0.03270818974216331,0.855181113467795,0,,,
1714160640.0321596,control,-0.03341391636637443,0.855181113467795,0,,,
1714160640.047485,control,-0.03385081136972511,0.855181113467795,0,,,
1714160640.075285,control,-0.03385081136972511,0.855181113467795,0,,,
1714160640.0797894,control,-0.03385081136972511,0.855181113467795,0,,,
1714160640.107815,control,-0.03385081136972511,0.855181113467795,0,,,
1714160640.1123369,control,-0.03385081136972511,0.855181113467795,0,,,
1714160640.1398618,control,-0.03385081136972511,0.855181113467795,0,,,
1714160640.1458683,control,-0.03385081136972511,0.855181113467795,0,,,
1714160640.1709406,control,-0.03385081136972511,0.855181113467795,0,,,
1714160640.1769412,control,-0.03385081136972511,0.855181113467795,0,,,
1714160640.2034838,control,-0.03385081136972511,0.855181113467795,0,,,
1714160640.2084851,control,-0.03385081136972511,0.855181113467795,0,,,
1714160640.2350333,control,-0.03374998830624918,0.855181113467795,0,,,
1714160640.2405415,control,-0.033716380770829994,0.855181113467795,0,,,
1714160640.268097,control,-0.033010639983633,0.855181113467795,0,,,
1714160640.2736115,control,-0.032842611330446705,0.855181113467795,0,,,
1714160640.3001566,control,-0.03153205067503971,0.855181113467795,0,,,
1714160640.3051643,control,-0.031162425119801714,0.855181113467795,0,,,
1714160640.3317134,control,-0.02958321050884515,0.855181113467795,0,,,
1714160640.336712,control,-0.029112835008291635,0.855181113467795,0,,,
1714160640.3637917,control,-0.027197865438015306,0.855181113467795,0,,,
1714160640.369793,control,-0.026794739817198227,0.855181113467795,0,,,
1714160640.3963654,control,-0.025081551430438605,0.855181113467795,0,,,
1714160640.4008822,control,-0.02471205984310997,0.855181113467795,0,,,
1714160640.430649,control,-0.022696767251674223,0.855181113467795,0,,,
1714160640.4366584,control,-0.022360903508514624,0.855181113467795,0,,,
1714160640.452229,control,-0.02162202091544845,0.855181113467795,0,,,
1714160640.468912,control,-0.0209503299653303,0.855181113467795,0,,,
1714160640.4849367,control,-0.0205473245038763,0.855181113467795,0,,,
1714160640.5009646,control,-0.02024507479305027,0.855181113467795,0,,,
1714160640.5162787,control,-0.02011074277834633,0.855181113467795,0,,,
1714160640.5322254,control,-0.02011074277834633,0.855181113467795,0,,,
1714160640.5487354,control,-0.02011074277834633,0.855181113467795,0,,,
1714160640.564291,control,-0.02011074277834633,0.855181113467795,0,,,
1714160640.5803287,control,-0.02011074277834633,0.8610999172391722,0,,,
1714160640.5968525,control,-0.02011074277834633,0.8610999172391722,0,,,
1714160640.6128786,control,-0.02011074277834633,0.8610999172391722,0,,,
1714160640.628392,control,-0.02011074277834633,0.8610999172391722,0,,,
1714160640.6444306,control,-0.02011074277834633,0.8610999172391722,0,,,
1714160640.6619756,control,-0.02011074277834633,0.8610999172391722,0,,,
1714160640.6890025,control,-0.02011074277834633,0.8610999172391722,0,,,
1714160640.6945162,control,-0.02011074277834633,0.8610999172391722,0,,,
1714160640.7220697,control,-0.02011074277834633,0.8610999172391722,0,,,
1714160640.7270696,control,-0.02011074277834633,0.8610999172391722,0,,,
1714160640.7539928,control,-0.02011074277834633,0.8610999172391722,0,,,
1714160640.7585065,control,-0.02011074277834633,0.8610999172391722,0,,,
1714160640.7745574,control,-0.02011074277834633,0.8610999172391722,0,,,
1714160640.7905927,control,-0.02011074277834633,0.8610999172391722,0,,,
1714160640.8061197,control,-0.02011074277834633,0.8610999172391722,0,,,
1714160640.8241787,control,-0.02011074277834633,0.8610999172391722,0,,,
1714160640.8504157,control,-0.02011074277834633,0.8610999172391722,0,,,
1714160640.8559313,control,-0.02011074277834633,0.8610999172391722,0,,,
1714160640.8719606,control,-0.02011074277834633,0.8610999172391722,0,,,
1714160640.8881946,control,-0.02011074277834633,0.8610999172391722,0,,,
1714160640.904826,control,-0.02011074277834633,0.8610999172391722,0,,,
1714160640.9208555,control,-0.02011074277834633,0.8610999172391722,0,,,
1714160640.9360871,control,-0.02011074277834633,0.8610999172391722,0,,,
1714160640.9541311,control,-0.02011074277834633,0.8610999172391722,0,,,
1714160640.9699283,control,-0.02011074277834633,0.8610999172391722,0,,,
1714160640.985991,control,-0.02024507479305027,0.8610999172391722,0,,,
1714160641.0018947,control,-0.02024507479305027,0.8610999172391722,0,,,
1714160641.0269177,control,-0.02024507479305027,0.8610999172391722,0,,,
1714160641.0429566,control,-0.02024507479305027,0.8610999172391722,0,,,
1714160641.0589771,control,-0.02024507479305027,0.8610999172391722,0,,,
1714160641.0855143,control,-0.02024507479305027,0.8610999172391722,0,,,
1714160641.0900276,control,-0.02024507479305027,0.8610999172391722,0,,,
1714160641.1180787,control,-0.02024507479305027,0.8610999172391722,0,,,
1714160641.1225948,control,-0.02024507479305027,0.8610999172391722,0,,,
1714160641.1486025,control,-0.02024507479305027,0.8610999172391722,0,,,
1714160641.1541135,control,-0.02024507479305027,0.8610999172391722,0,,,
1714160641.1706548,control,-0.02024507479305027,0.8610999172391722,0,,,
1714160641.1861744,control,-0.02024507479305027,0.8610999172391722,0,,,
1714160641.2022016,control,-0.02024507479305027,0.8610999172391722,0,,,
1714160641.2187128,control,-0.02024507479305027,0.8610999172391722,0,,,
1714160641.2347624,control,-0.02024507479305027,0.8610999172391722,0,,,
1714160641.2507977,control,-0.02024507479305027,0.8610999172391722,0,,,
1714160641.2668293,control,-0.02024507479305027,0.8610999172391722,0,,,
1714160641.282866,control,-0.02024507479305027,0.8610999172391722,0,,,
1714160641.2983754,control,-0.02024507479305027,0.8610999172391722,0,,,
1714160641.3144033,control,-0.02024507479305027,0.8610999172391722,0,,,
1714160641.3304214,control,-0.02024507479305027,0.8610999172391722,0,,,
1714160641.3469377,control,-0.02024507479305027,0.8610999172391722,0,,,
1714160641.3624918,control,-0.02024507479305027,0.8610999172391722,0,,,
1714160641.3790047,control,-0.02024507479305027,0.8610999172391722,0,,,
1714160641.3940685,control,-0.02024507479305027,0.8610999172391722,0,,,
1714160641.4101655,control,-0.02024507479305027,0.8610999172391722,0,,,
1714160641.4266095,control,-0.02024507479305027,0.8610999172391722,0,,,
1714160641.4428246,control,-0.02024507479305027,0.8610999172391722,0,,,
1714160641.4584198,control,-0.02024507479305027,0.8610999172391722,0,,,
1714160641.474447,control,-0.02024507479305027,0.8610999172391722,0,,,
1714160641.4904683,control,-0.02024507479305027,0.8610999172391722,0,,,
1714160641.506988,control,-0.02024507479305027,0.8610999172391722,0,,,
1714160641.5230207,control,-0.02024507479305027,0.8610999172391722,0,,,
1714160641.538537,control,-0.02024507479305027,0.8610999172391722,0,,,
1714160641.554574,control,-0.02024507479305027,0.8610999172391722,0,,,
1714160641.5711234,control,-0.02011074277834633,0.8610999172391722,0,,,
1714160641.586629,control,-0.02011074277834633,0.8610999172391722,0,,,
1714160641.6026692,control,-0.02011074277834633,0.8610999172391722,0,,,
1714160641.6302016,control,-0.01957342192606164,0.8610999172391722,0,,,
1714160641.6342084,control,-0.01943909349037435,0.8610999172391722,0,,,
1714160641.6612644,control,-0.018599556462855056,0.8610999172391722,0,,,
1714160641.6672728,control,-0.018364490842694096,0.8610999172391722,0,,,
1714160641.6938207,control,-0.017155613418781343,0.8610999172391722,0,,,
1714160641.698823,control,-0.016819823181002325,0.8610999172391722,0,,,
1714160641.7148669,control,-0.016114675933985436,0.8610999172391722,0,,,
1714160641.7308936,control,-0.01530881294257266,0.8610999172391722,0,,,
1714160641.746408,control,-0.014536546242702453,0.8610999172391722,0,,,
1714160641.762944,control,-0.01373072119750794,0.8610999172391722,0,,,
1714160641.7784626,control,-0.012992063926744755,0.8610999172391722,0,,,
1714160641.7944837,control,-0.012454867588036258,0.8610999172391722,0,,,
1714160641.8135307,control,-0.0116490864591435,0.8610999172391722,0,,,
1714160641.8300438,control,-0.011246201631892232,0.8610999172391722,0,,,
1714160641.8450775,control,-0.010776173937930643,0.8610999172391722,0,,,
1714160641.8616168,control,-0.010272578114882094,0.8610999172391722,0,,,
1714160641.8771415,control,-0.009869705219781021,0.8610999172391722,0,,,
1714160641.8931723,control,-0.009366118590497706,0.8610999172391722,0,,,
1714160641.9086962,control,-0.008728248979734673,0.8610999172391722,0,,,
1714160641.9257326,control,-0.008123958013337151,0.8610999172391722,0,,,
1714160641.952282,control,-0.006814680683341278,0.8610999172391722,0,,,
1714160641.9577987,control,-0.006445401751988056,0.8610999172391722,0,,,
1714160641.9853494,control,-0.004565461407073694,0.8610999172391722,0,,,
1714160641.9898524,control,-0.0043304714053845495,0.8610999172391722,0,,,
1714160642.0169122,control,-0.001947023944695216,0.8610999172391722,0,,,
1714160642.022429,control,-0.0016113295195405886,0.8581450404398726,0,,,
1714160642.0481174,control,0.0006713868196281389,0.8581450404398726,0,,,
1714160642.0536313,control,0.0012084966820715434,0.8581450404398726,0,,,
1714160642.068665,control,0.002719122912303485,0.8522080807149879,0,,,
1714160642.0877078,control,0.004296901444789367,0.8492258860594036,0,,,
1714160642.1027436,control,0.005505426715391976,0.8492258860594036,0,,,
1714160642.1182587,control,0.007049677328230885,0.8462344728585406,0,,,
1714160642.1468003,control,0.009131113137936667,0.8462344728585406,0,,,
1714160642.152309,control,0.009500407883314273,0.8462344728585406,0,,,
1714160642.1798666,control,0.01117905451911487,0.8462344728585406,0,,,
1714160642.18538,control,0.01151479110305355,0.8462344728585406,0,,,
1714160642.212924,control,0.012555591344729052,0.8462344728585406,0,,,
1714160642.2179253,control,0.01272346483960501,0.8462344728585406,0,,,
1714160642.2434664,control,0.013294240142122212,0.8462344728585406,0,,,
1714160642.2484686,control,0.013394966083943943,0.8462344728585406,0,,,
1714160642.276549,control,0.013629994341886274,0.8462344728585406,0,,,
1714160642.281062,control,0.01373072119750794,0.8462344728585406,0,,,
1714160642.3081062,control,0.013932175746503461,0.8462344728585406,0,,,
1714160642.312629,control,0.013932175746503461,0.8462344728585406,0,,,
1714160642.3401916,control,0.013965751614150243,0.8462344728585406,0,,,
1714160642.3451993,control,0.013965751614150243,0.8462344728585406,0,,,
1714160642.3712592,control,0.013965751614150243,0.8462344728585406,0,,,
1714160642.3762605,control,0.013965751614150243,0.8462344728585406,0,,,
1714160642.3952973,control,0.013965751614150243,0.8462344728585406,0,,,
1714160642.4098117,control,0.013965751614150243,0.8462344728585406,0,,,
1714160642.4399872,control,0.01423435969504256,0.8462344728585406,0,,,
1714160642.445929,control,0.014301512034630343,0.8462344728585406,0,,,
1714160642.461677,control,0.014637275679045637,0.8462344728585406,0,,,
1714160642.4775424,control,0.015140927356189686,0.8462344728585406,0,,,
1714160642.4935951,control,0.015678164282920466,0.8462344728585406,0,,,
1714160642.5091069,control,0.0163833015294947,0.8462344728585406,0,,,
1714160642.5366673,control,0.01776004564421928,0.8462344728585406,0,,,
1714160642.543178,control,0.01809584690236949,0.8462344728585406,0,,,
1714160642.570233,control,0.019338347624072258,0.8462344728585406,0,,,
1714160642.57624,control,0.019674168715942564,0.8462344728585406,0,,,
1714160642.6027758,control,0.020715242627873495,0.8462344728585406,0,,,
1714160642.6077783,control,0.020916745918869876,0.8462344728585406,0,,,
1714160642.6238117,control,0.021353342229142213,0.8462344728585406,0,,,
1714160642.6398318,control,0.021588435909815285,0.8462344728585406,0,,,
1714160642.666382,control,0.021722776225178177,0.8462344728585406,0,,,
1714160642.6718976,control,0.021722776225178177,0.8462344728585406,0,,,
1714160642.6989603,control,0.021722776225178177,0.8462344728585406,0,,,
1714160642.7034729,control,0.021722776225178177,0.8462344728585406,0,,,
1714160642.7215345,control,0.021722776225178177,0.8462344728585406,0,,,
1714160642.7370524,control,0.021722776225178177,0.8462344728585406,0,,,
1714160642.7530787,control,0.021722776225178177,0.8462344728585406,0,,,
1714160642.769105,control,0.021722776225178177,0.8462344728585406,0,,,
1714160642.7851398,control,0.021722776225178177,0.8462344728585406,0,,,
1714160642.801163,control,0.021722776225178177,0.8462344728585406,0,,,
1714160642.817328,control,0.021722776225178177,0.8462344728585406,0,,,
1714160642.8444612,control,0.021722776225178177,0.8462344728585406,0,,,
1714160642.849963,control,0.021722776225178177,0.8462344728585406,0,,,
1714160642.8659968,control,0.021722776225178177,0.8462344728585406,0,,,
1714160642.8820326,control,0.021722776225178177,0.8462344728585406,0,,,
1714160642.9090588,control,0.021722776225178177,0.8462344728585406,0,,,
1714160642.9135783,control,0.021722776225178177,0.8462344728585406,0,,,
1714160642.9411304,control,0.021722776225178177,0.8462344728585406,0,,,
1714160642.946129,control,0.021722776225178177,0.8462344728585406,0,,,
1714160642.973174,control,0.021722776225178177,0.8462344728585406,0,,,
1714160642.9781747,control,0.021722776225178177,0.8432337839429888,0,,,
1714160643.0057135,control,0.021722776225178177,0.8402237616098741,0,,,
1714160643.011232,control,0.021722776225178177,0.8402237616098741,0,,,
1714160643.0372577,control,0.021722776225178177,0.831137108933895,0,,,
1714160643.0427816,control,0.021722776225178177,0.8250315908900264,0,,,
1714160643.0588214,control,0.021722776225178177,0.815800474153604,0,,,
1714160643.0748641,control,0.021722776225178177,0.803353725078269,0,,,
1714160643.1024134,control,0.021722776225178177,0.7811791057752773,0,,,
1714160643.1074147,control,0.021722776225178177,0.7779694132809515,0,,,
1714160643.1339846,control,0.021722776225178177,0.7650231145123714,0,,,
1714160643.138982,control,0.021722776225178177,0.7617592955673048,0,,,
1714160643.155019,control,0.021722776225178177,0.7551984473869771,0,,,
1714160643.170071,control,0.021722776225178177,0.751901267366327,0,,,
1714160643.1981025,control,0.021722776225178177,0.7452730126871808,0,,,
1714160643.2026134,control,0.021722776225178177,0.7452730126871808,0,,,
1714160643.2206392,control,0.021722776225178177,0.7419417825477788,0,,,
1714160643.2351613,control,0.021722776225178177,0.7419417825477788,0,,,
1714160643.2511983,control,0.021722776225178177,0.7385990455456733,0,,,
1714160643.2672188,control,0.021722776225178177,0.7385990455456733,0,,,
1714160643.2832491,control,0.021722776225178177,0.7385990455456733,0,,,
1714160643.2997634,control,0.021722776225178177,0.7385990455456733,0,,,
1714160643.3157887,control,0.02175636142628417,0.7385990455456733,0,,,
1714160643.342336,control,0.02175636142628417,0.7385990455456733,0,,,
1714160643.3473368,control,0.02175636142628417,0.7385990455456733,0,,,
1714160643.374471,control,0.02175636142628417,0.7452730126871808,0,,,
1714160643.3799763,control,0.02175636142628417,0.7452730126871808,0,,,
1714160643.4060233,control,0.02175636142628417,0.7452730126871808,0,,,
1714160643.411536,control,0.02175636142628417,0.7485928149134281,0,,,
1714160643.4400668,control,0.02175636142628417,0.751901267366327,0,,,
1714160643.445015,control,0.02175636142628417,0.751901267366327,0,,,
1714160643.4608052,control,0.02175636142628417,0.751901267366327,0,,,
1714160643.478048,control,0.02175636142628417,0.7452730126871808,0,,,
1714160643.5048852,control,0.02175636142628417,0.7419417825477788,0,,,
1714160643.5109212,control,0.02175636142628417,0.7419417825477788,0,,,
1714160643.5369549,control,0.02175636142628417,0.7419417825477788,0,,,
1714160643.5414715,control,0.02175636142628417,0.7419417825477788,0,,,
1714160643.5571024,control,0.02175636142628417,0.7419417825477788,0,,,
1714160643.5736296,control,0.02175636142628417,0.7419417825477788,0,,,
1714160643.6001668,control,0.02175636142628417,0.7419417825477788,0,,,
1714160643.6061716,control,0.02175636142628417,0.7419417825477788,0,,,
1714160643.623211,control,0.02175636142628417,0.7419417825477788,0,,,
1714160643.638727,control,0.02175636142628417,0.7419417825477788,0,,,
1714160643.654758,control,0.02175636142628417,0.7419417825477788,0,,,
1714160643.6818588,control,0.02175636142628417,0.7419417825477788,0,,,
1714160643.6868565,control,0.02175636142628417,0.7419417825477788,0,,,
1714160643.702885,control,0.02175636142628417,0.7419417825477788,0,,,
1714160643.7184012,control,0.02175636142628417,0.7419417825477788,0,,,
1714160643.7344284,control,0.02175636142628417,0.7419417825477788,0,,,
1714160643.7504642,control,0.02175636142628417,0.7419417825477788,0,,,
1714160643.7669954,control,0.02175636142628417,0.7419417825477788,0,,,
1714160643.7830184,control,0.02175636142628417,0.7385990455456733,0,,,
1714160643.7985456,control,0.02175636142628417,0.7385990455456733,0,,,
1714160643.8260953,control,0.02175636142628417,0.7285009914843854,0,,,
1714160643.8324337,control,0.02175636142628417,0.7285009914843854,0,,,
1714160643.8589845,control,0.02175636142628417,0.7251114209440678,0,,,
1714160643.8639958,control,0.02175636142628417,0.7251114209440678,0,,,
1714160643.8800256,control,0.02175636142628417,0.7217099362473083,0,,,
1714160643.8955405,control,0.02175636142628417,0.7217099362473083,0,,,
1714160643.9115727,control,0.02175636142628417,0.7217099362473083,0,,,
1714160643.927093,control,0.02175636142628417,0.7217099362473083,0,,,
1714160643.9431198,control,0.02175636142628417,0.7182964533433602,0,,,
1714160643.9706593,control,0.02175636142628417,0.7148708872888985,0,,,
1714160643.9766643,control,0.02175636142628417,0.7148708872888985,0,,,
1714160643.9917166,control,0.02175636142628417,0.7114331522353371,0,,,
1714160644.007232,control,0.02175636142628417,0.7114331522353371,0,,,
1714160644.0347753,control,0.02175636142628417,0.7114331522353371,0,,,
1714160644.0397768,control,0.02175636142628417,0.7114331522353371,0,,,
1714160644.0668273,control,0.02175636142628417,0.7114331522353371,0,,,
1714160644.0723398,control,0.02175636142628417,0.7114331522353371,0,,,
1714160644.0888562,control,0.02175636142628417,0.7114331522353371,0,,,
1714160644.1049006,control,0.021722776225178177,0.7079831614159194,0,,,
1714160644.1209292,control,0.021722776225178177,0.7045208271325776,0,,,
1714160644.1364534,control,0.021722776225178177,0.7010460607425574,0,,,
1714160644.1524923,control,0.021722776225178177,0.6975587726447999,0,,,
1714160644.1800675,control,0.021722776225178177,0.6940588722660791,0,,,
1714160644.185589,control,0.021722776225178177,0.6905462680468858,0,,,
1714160644.200091,control,0.021722776225178177,0.6905462680468858,0,,,
1714160644.2167056,control,0.02168919107305409,0.6870208674270563,0,,,
1714160644.2327354,control,0.021521266044509282,0.6870208674270563,0,,,
1714160644.248244,control,0.021353342229142213,0.6799313016534824,0,,,
1714160644.2648199,control,0.021017498200042704,0.6799313016534824,0,,,
1714160644.280854,control,0.020681658909961084,0.6763669462430741,0,,,
1714160644.296364,control,0.0201779086947073,0.6727894138880657,0,,,
1714160644.3124058,control,0.0198084983904942,0.6727894138880657,0,,,
1714160644.3399336,control,0.01900253089231023,0.6727894138880657,0,,,
1714160644.3449435,control,0.018801042914584568,0.6691986068000356,0,,,
1714160644.3609695,control,0.018465233001396117,0.6691986068000356,0,,,
1714160644.388005,control,0.017625726266327857,0.6691986068000356,0,,,
1714160644.3925202,control,0.017424248390092125,0.6691986068000356,0,,,
1714160644.4080625,control,0.016954138816841168,0.6691986068000356,0,,,
1714160644.4241512,control,0.01651761521125624,0.6691986068000356,0,,,
1714160644.451915,control,0.01571174188804775,0.6583455427660694,0,,,
1714160644.4569094,control,0.015678164282920466,0.6547006367625572,0,,,
1714160644.4724772,control,0.015208081487815415,0.6547006367625572,0,,,
1714160644.4889874,control,0.014771582056475233,0.6436828168006246,0,,,
1714160644.504646,control,0.014435817101283874,0.6362672908600797,0,,,
1714160644.5213413,control,0.014100055400316145,0.6287945016040417,0,,,
1714160644.5368452,control,0.01373072119750794,0.6287945016040417,0,,,
1714160644.5639179,control,0.013059213989880152,0.6212635577612914,0,,,
1714160644.5784397,control,0.012589165986796897,0.6212635577612914,0,,,
1714160644.5944784,control,0.012219846468183512,0.6212635577612914,0,,,
1714160644.6104975,control,0.0116490864591435,0.6212487913919204,0,,,
1714160644.627019,control,0.011044760595336685,0.6212487913919204,0,,,
1714160644.6430404,control,0.010339723918033752,0.6212487913919204,0,,,
1714160644.658564,control,0.009634697518754171,0.6212487913919204,0,,,
1714160644.6861045,control,0.008123958013337151,0.6212487913919204,0,,,
1714160644.7011604,control,0.0071839614732117,0.6212487913919204,0,,,
1714160644.7166708,control,0.0061768363662808344,0.6212487913919204,0,,,
1714160644.7336972,control,0.005001872767564734,0.6212487913919204,0,,,
1714160644.7482102,control,0.004129051785568245,0.6212487913919204,0,,,
1714160644.764238,control,0.0032226674063594676,0.6212487913919204,0,,,
1714160644.78026,control,0.0022155797971391412,0.6212487913919204,0,,,
1714160644.8082995,control,0.0011413579174894652,0.6212487913919204,0,,,
1714160644.824852,control,0.0005035400816204615,0.6212487913919204,0,,,
1714160644.851394,control,-0.00010070800815296367,0.6212487913919204,0,,,
1714160644.8669062,control,-0.00023498535588764956,0.6212487913919204,0,,,
1714160644.8829358,control,-0.00023498535588764956,0.6212487913919204,0,,,
1714160644.8984642,control,-0.00023498535588764956,0.6212487913919204,0,,,
1714160644.9144995,control,-0.00023498535588764956,0.6212487913919204,0,,,
1714160644.941038,control,-0.00023498535588764956,0.6212487913919204,0,,,
1714160644.9575527,control,-0.00023498535588764956,0.6212487913919204,0,,,
1714160644.9851081,control,-0.00023498535588764956,0.6212487913919204,0,,,
1714160645.0001347,control,-0.00023498535588764956,0.6212487913919204,0,,,
1714160645.0271654,control,-0.00023498535588764956,0.6212487913919204,0,,,
1714160645.0316865,control,-0.00023498535588764956,0.6212487913919204,0,,,
1714160645.0472128,control,-0.00023498535588764956,0.6212487913919204,0,,,
1714160645.0632415,control,-0.00023498535588764956,0.6212487913919204,0,,,
1714160645.0802634,control,-0.00023498535588764956,0.6212487913919204,0,,,
1714160645.1073074,control,-0.00023498535588764956,0.6212487913919204,0,,,
1714160645.1128128,control,-0.00023498535588764956,0.6212487913919204,0,,,
1714160645.1273284,control,-0.00023498535588764956,0.6212487913919204,0,,,
1714160645.1433635,control,-0.00023498535588764956,0.6212487913919204,0,,,
1714160645.160384,control,-0.00023498535588764956,0.6212487913919204,0,,,
1714160645.1864192,control,-0.00023498535588764956,0.6212487913919204,0,,,
1714160645.2014594,control,-0.00023498535588764956,0.6212487913919204,0,,,
1714160645.2179687,control,-0.00023498535588764956,0.6212487913919204,0,,,
1714160645.235009,control,-0.00023498535588764956,0.6212487913919204,0,,,
1714160645.2500234,control,-0.00023498535588764956,0.6212487913919204,0,,,
1714160645.2780728,control,-0.00023498535588764956,0.6212487913919204,0,,,
1714160645.2930977,control,-0.00023498535588764956,0.6212487913919204,0,,,
1714160645.308608,control,-0.00023498535588764956,0.6174018699744762,0,,,
1714160645.324639,control,-0.00023498535588764956,0.6096618436644565,0,,,
1714160645.3406546,control,-0.00023498535588764956,0.5979344774002306,0,,,
1714160645.3686917,control,-0.00023498535588764956,0.5820735872329712,0,,,
1714160645.375205,control,-0.00023498535588764956,0.5780519701692741,0,,,
1714160645.3902316,control,-0.00023498535588764956,0.5740290754661139,0,,,
1714160645.4197705,control,-0.00023498535588764956,0.5577681465172044,0,,,
1714160645.4283042,control,-0.00023498535588764956,0.5536598593076767,0,,,
1714160645.4463284,control,-0.00023498535588764956,0.5495340567186471,0,,,
1714160645.4618645,control,-0.00023498535588764956,0.5412293035041142,0,,,
1714160645.4773982,control,-0.00023498535588764956,0.5328526635271087,0,,,
1714160645.4934273,control,-0.00023498535588764956,0.5286369949748542,0,,,
1714160645.5128012,control,-0.00023498535588764956,0.5286369949748542,0,,,
1714160645.538346,control,-0.00023498535588764956,0.5201501606714016,0,,,
1714160645.5438535,control,-0.00023498535588764956,0.5201501606714016,0,,,
1714160645.5598857,control,-0.00023498535588764956,0.5201501606714016,0,,,
1714160645.5864375,control,-0.00023498535588764956,0.5158786685404688,0,,,
1714160645.5919526,control,-0.00023498535588764956,0.5158786685404688,0,,,
1714160645.6074705,control,-0.00023498535588764956,0.5158786685404688,0,,,
1714160645.63501,control,-0.000436401394891156,0.5158786685404688,0,,,
1714160645.6485493,control,-0.0007049561714665577,0.5158786685404688,0,,,
1714160645.6640844,control,-0.001074219163196973,0.5158786685404688,0,,,
1714160645.681122,control,-0.001577760098247444,0.5158786685404688,0,,,
1714160645.7091565,control,-0.003155528051635838,0.5158786685404688,0,,,
1714160645.7231712,control,-0.004162621698497378,0.5158786685404688,0,,,
1714160645.738684,control,-0.005203294028009981,0.5158786685404688,0,,,
1714160645.7547154,control,-0.006579684791074298,0.5158786685404688,0,,,
1714160645.7702558,control,-0.008023243440986583,0.5158786685404688,0,,,
1714160645.7867775,control,-0.009668269981716687,0.5201501606714016,0,,,
1714160645.8028138,control,-0.011246201631892232,0.5201501606714016,0,,,
1714160645.8298419,control,-0.01373072119750794,0.5244028813951171,0,,,
1714160645.834242,control,-0.014032903443966004,0.5286369949748542,0,,,
1714160645.8501558,control,-0.015073773361093779,0.5286369949748542,0,,,
1714160645.87786,control,-0.016282566656252002,0.5453905887593558,0,,,
1714160645.8823707,control,-0.016282566656252002,0.5453905887593558,0,,,
1714160645.9084084,control,-0.016484036735148856,0.5495340567186471,0,,,
1714160645.9149199,control,-0.016484036735148856,0.5495340567186471,0,,,
1714160645.9309883,control,-0.016484036735148856,0.5495340567186471,0,,,
1714160645.9464996,control,-0.016484036735148856,0.5495340567186471,0,,,
1714160645.9625373,control,-0.016248988438686867,0.5495340567186471,0,,,
1714160645.9885883,control,-0.01571174188804775,0.5412293035041142,0,,,
1714160645.9941027,control,-0.015577431679300535,0.5412293035041142,0,,,
1714160646.010119,control,-0.015208081487815415,0.5370500470588806,0,,,
1714160646.0266423,control,-0.0147044288014644,0.5328526635271087,0,,,
1714160646.0426831,control,-0.014167207483806413,0.5328526635271087,0,,,
1714160646.0581834,control,-0.01366356992960088,0.5328526635271087,0,,,
1714160646.0742197,control,-0.013126364170767088,0.5328526635271087,0,,,
1714160646.1047993,control,-0.011951252553836124,0.5328526635271087,0,,,
1714160646.119832,control,-0.011447643581044279,0.5328526635271087,0,,,
1714160646.1353498,control,-0.010910467069890104,0.5328526635271087,0,,,
1714160646.1513844,control,-0.01040686981441008,0.5412293035041142,0,,,
1714160646.1789217,control,-0.009668269981716687,0.5453905887593558,0,,,
1714160646.1832368,control,-0.009533980259864096,0.5453905887593558,0,,,
1714160646.1999483,control,-0.00916468528309564,0.5453905887593558,0,,,
1714160646.2154715,control,-0.008828964748587995,0.5453905887593558,0,,,
1714160646.2315142,control,-0.008493246204108244,0.5453905887593558,0,,,
1714160646.2585578,control,-0.00798967195313854,0.5453905887593558,0,,,
1714160646.2635837,control,-0.00798967195313854,0.5453905887593558,0,,,
1714160646.2906482,control,-0.007788243401575394,0.5453905887593558,0,,,
1714160646.2956555,control,-0.007754672038196064,0.5453905887593558,0,,,
1714160646.3146856,control,-0.007653958052626581,0.5453905887593558,0,,,
1714160646.329199,control,-0.007653958052626581,0.5453905887593558,0,,,
1714160646.347221,control,-0.007653958052626581,0.5453905887593558,0,,,
1714160646.36275,control,-0.007653958052626581,0.5453905887593558,0,,,
1714160646.3782663,control,-0.007653958052626581,0.5453905887593558,0,,,
1714160646.394292,control,-0.007653958052626581,0.5453905887593558,0,,,
1714160646.4231005,control,-0.007486101754031886,0.5453905887593558,0,,,
1714160646.42769,control,-0.007486101754031886,0.5453905887593558,0,,,
1714160646.4438558,control,-0.007318245877265359,0.5370500470588806,0,,,
1714160646.4585502,control,-0.006982535351379313,0.5328526635271087,0,,,
1714160646.4750874,control,-0.006613255587731529,0.5328526635271087,0,,,
1714160646.4911172,control,-0.0061096951605863255,0.5328526635271087,0,,,
1714160646.5191565,control,-0.004901162290555939,0.5328526635271087,0,,,
1714160646.5236742,control,-0.0046997416327510914,0.5328526635271087,0,,,
1714160646.5401933,control,-0.0038269229789062425,0.5328526635271087,0,,,
1714160646.5552166,control,-0.0028198316926319757,0.5286369949748542,0,,,
1714160646.5717697,control,-0.0018127461262116592,0.5286369949748542,0,,,
1714160646.5872946,control,-0.000738525524893808,0.5286369949748542,0,,,
1714160646.6033285,control,0.0002685546939561999,0.5286369949748542,0,,,
1714160646.631634,control,0.002014162879963678,0.5286369949748542,0,,,
1714160646.635631,control,0.0022155797971391412,0.5286369949748542,0,,,
1714160646.6516654,control,0.003088388725360216,0.5286369949748542,0,,,
1714160646.667691,control,0.0038940626514012643,0.5286369949748542,0,,,
1714160646.6837187,control,0.00449832135627678,0.5286369949748542,0,,,
1714160646.7112694,control,0.005203294028009981,0.5286369949748542,0,,,
1714160646.7152684,control,0.005270434541171326,0.5286369949748542,0,,,
1714160646.7313192,control,0.005304004815532422,0.5244028813951171,0,,,
1714160646.747353,control,0.005304004815532422,0.5244028813951171,0,,,
1714160646.7639232,control,0.005304004815532422,0.5244028813951171,0,,,
1714160646.7904627,control,0.005304004815532422,0.5244028813951171,0,,,
1714160646.795471,control,0.005102583346035085,0.5244028813951171,0,,,
1714160646.8230097,control,0.004968302597389185,0.5244028813951171,0,,,
1714160646.828012,control,0.004968302597389185,0.5244028813951171,0,,,
1714160646.8550754,control,0.004901162290555939,0.5244028813951171,0,,,
1714160646.859077,control,0.004901162290555939,0.5244028813951171,0,,,
1714160646.8756337,control,0.004901162290555939,0.5244028813951171,0,,,
1714160646.8916643,control,0.004834022027908725,0.5201501606714016,0,,,
1714160646.90718,control,0.004800451912965716,0.5201501606714016,0,,,
1714160646.934733,control,0.004431181346033966,0.5201501606714016,0,,,
1714160646.938734,control,0.004263331493878723,0.5158786685404688,0,,,
1714160646.966463,control,0.003256237094578439,0.5115882385542678,0,,,
1714160646.9804838,control,0.002685553331218348,0.5072787020410159,0,,,
1714160646.9960034,control,0.0017120378055124094,0.49423373242330904,0,,,
1714160647.0120425,control,0.0006713868196281389,0.48099344051233106,0,,,
1714160647.039066,control,-0.0012084966820715434,0.4630763094034289,0,,,
1714160647.0435863,control,-0.0014434824478779282,0.4630763094034289,0,,,
1714160647.0706346,control,-0.0033233764931090057,0.44941734729060534,0,,,
1714160647.0756412,control,-0.0036590739472864226,0.44482117906924334,0,,,
1714160647.0916765,control,-0.0046997416327510914,0.44482117906924334,0,,,
1714160647.1071868,control,-0.00560613783181513,0.44020307724909813,0,,,
1714160647.1235526,control,-0.006579684791074298,0.43556283148517627,0,,,
1714160647.1390674,control,-0.007452530545235029,0.4262150514850285,0,,,
1714160647.1558294,control,-0.008123958013337151,0.42150708111974344,0,,,
1714160647.1713812,control,-0.008828964748587995,0.42150708111974344,0,,,
1714160647.1878943,control,-0.009366118590497706,0.42150708111974344,0,,,
1714160647.2144525,control,-0.009903277836879698,0.42150708111974344,0,,,
1714160647.230458,control,-0.010037568529253325,0.4262150514850285,0,,,
1714160647.257492,control,-0.010037568529253325,0.4262150514850285,0,,,
1714160647.2620065,control,-0.010037568529253325,0.4262150514850285,0,,,
1714160647.278046,control,-0.010037568529253325,0.43556283148517627,0,,,
1714160647.2940724,control,-0.010037568529253325,0.44020307724909813,0,,,
1714160647.310104,control,-0.010037568529253325,0.44020307724909813,0,,,
1714160647.3266227,control,-0.010037568529253325,0.44020307724909813,0,,,
1714160647.3426592,control,-0.010037568529253325,0.44482117906924334,0,,,
1714160647.3702023,control,-0.010037568529253325,0.44482117906924334,0,,,
1714160647.3747177,control,-0.010071141258719904,0.44482117906924334,0,,,
1714160647.4022565,control,-0.010272578114882094,0.44020307724909813,0,,,
1714160647.406257,control,-0.010373296854530987,0.44020307724909813,0,,,
1714160647.4222825,control,-0.010574734967182631,0.44020307724909813,0,,,
1714160647.4387941,control,-0.010910467069890104,0.44020307724909813,0,,,
1714160647.4549558,control,-0.011279775226267916,0.44020307724909813,0,,,
1714160647.4810255,control,-0.01208554929307064,0.44020307724909813,0,,,
1714160647.4870253,control,-0.012186272133276737,0.44020307724909813,0,,,
1714160647.514578,control,-0.013126364170767088,0.44020307724909813,0,,,
1714160647.5185738,control,-0.013227089664206557,0.44020307724909813,0,,,
1714160647.534611,control,-0.013629994341886274,0.44020307724909813,0,,,
1714160647.5506327,control,-0.013898599910263118,0.44020307724909813,0,,,
1714160647.5666676,control,-0.014167207483806413,0.44020307724909813,0,,,
1714160647.5942194,control,-0.014267935848754638,0.44020307724909813,0,,,
1714160647.5982196,control,-0.014267935848754638,0.44020307724909813,0,,,
1714160647.6148422,control,-0.014267935848754638,0.44020307724909813,0,,,
1714160647.6413894,control,-0.014267935848754638,0.44020307724909813,0,,,
1714160647.64639,control,-0.014267935848754638,0.44020307724909813,0,,,
1714160647.6734378,control,-0.014267935848754638,0.44020307724909813,0,,,
1714160647.6869507,control,-0.014267935848754638,0.44020307724909813,0,,,
1714160647.7029853,control,-0.014267935848754638,0.44020307724909813,0,,,
1714160647.7185955,control,-0.014267935848754638,0.44020307724909813,0,,,
1714160647.745148,control,-0.014267935848754638,0.44020307724909813,0,,,
1714160647.7506444,control,-0.014267935848754638,0.44020307724909813,0,,,
1714160647.7666795,control,-0.014267935848754638,0.44020307724909813,0,,,
1714160647.7827246,control,-0.014267935848754638,0.44020307724909813,0,,,
1714160647.7982397,control,-0.014267935848754638,0.44020307724909813,0,,,
1714160647.8257868,control,-0.014267935848754638,0.44020307724909813,0,,,
1714160647.8303,control,-0.014267935848754638,0.44020307724909813,0,,,
1714160647.8468208,control,-0.014267935848754638,0.44020307724909813,0,,,
1714160647.8728735,control,-0.014167207483806413,0.44020307724909813,0,,,
1714160647.8788853,control,-0.014066479406286417,0.44020307724909813,0,,,
1714160647.8949142,control,-0.013898599910263118,0.44020307724909813,0,,,
1714160647.9224496,control,-0.013327815425993978,0.44020307724909813,0,,,
1714160647.926451,control,-0.013193514470011243,0.44020307724909813,0,,,
1714160647.9454732,control,-0.01248844214542444,0.44020307724909813,0,,,
1714160647.9725218,control,-0.011279775226267916,0.44020307724909813,0,,,
1714160647.9775248,control,-0.011078334038748406,0.44020307724909813,0,,,
1714160647.993567,control,-0.01023900524807629,0.44020307724909813,0,,,
1714160648.009077,control,-0.009366118590497706,0.44020307724909813,0,,,
1714160648.02511,control,-0.008358959326571483,0.44020307724909813,0,,,
1714160648.0526643,control,-0.006579684791074298,0.44020307724909813,0,,,
1714160648.0576684,control,-0.006411831028723809,0.44020307724909813,0,,,
1714160648.0732167,control,-0.005236864278689068,0.44020307724909813,0,,,
1714160648.0887432,control,-0.004162621698497378,0.44020307724909813,0,,,
1714160648.1053476,control,-0.002954110155731828,0.44020307724909813,0,,,
1714160648.1328952,control,-0.0008728029560042987,0.44020307724909813,0,,,
1714160648.1378973,control,-0.0005706787728892841,0.44020307724909813,0,,,
1714160648.1537073,control,0.0006378174693028928,0.44020307724909813,0,,,
1714160648.1807446,control,0.0023834273647463863,0.44020307724909813,0,,,
1714160648.1857522,control,0.0025848446239767685,0.44020307724909813,0,,,
1714160648.2013378,control,0.0034240856472713414,0.44020307724909813,0,,,
1714160648.2178648,control,0.004129051785568245,0.44020307724909813,0,,,
1714160648.2338846,control,0.004632601499030024,0.44020307724909813,0,,,
1714160648.2604399,control,0.005136153561758657,0.44020307724909813,0,,,
1714160648.265966,control,0.005270434541171326,0.44020307724909813,0,,,
1714160648.2819927,control,0.005304004815532422,0.44020307724909813,0,,,
1714160648.3080275,control,0.005304004815532422,0.44020307724909813,0,,,
1714160648.3135517,control,0.005304004815532422,0.44020307724909813,0,,,
1714160648.329063,control,0.005304004815532422,0.44020307724909813,0,,,
1714160648.3450894,control,0.005304004815532422,0.44020307724909813,0,,,
1714160648.3616405,control,0.005304004815532422,0.44020307724909813,0,,,
1714160648.3776731,control,0.005304004815532422,0.44020307724909813,0,,,
1714160648.3937016,control,0.005304004815532422,0.44020307724909813,0,,,
1714160648.4202888,control,0.005304004815532422,0.44020307724909813,0,,,
1714160648.4366224,control,0.005304004815532422,0.44020307724909813,0,,,
1714160648.4524639,control,0.005304004815532422,0.44020307724909813,0,,,
1714160648.468097,control,0.005304004815532422,0.44020307724909813,0,,,
1714160648.4846537,control,0.005304004815532422,0.44020307724909813,0,,,
1714160648.500666,control,0.005304004815532422,0.44020307724909813,0,,,
1714160648.527711,control,0.005304004815532422,0.44020307724909813,0,,,
1714160648.5322256,control,0.005304004815532422,0.44020307724909813,0,,,
1714160648.5487309,control,0.005304004815532422,0.44020307724909813,0,,,
1714160648.5757818,control,0.005304004815532422,0.44020307724909813,0,,,
1714160648.5802917,control,0.005304004815532422,0.44020307724909813,0,,,
1714160648.5968146,control,0.005304004815532422,0.44020307724909813,0,,,
1714160648.6233852,control,0.005304004815532422,0.44020307724909813,0,,,
1714160648.6283824,control,0.005304004815532422,0.44020307724909813,0,,,
1714160648.6559243,control,0.005304004815532422,0.44020307724909813,0,,,
1714160648.6604342,control,0.005304004815532422,0.44020307724909813,0,,,
1714160648.6764927,control,0.005304004815532422,0.44020307724909813,0,,,
1714160648.7030551,control,0.005304004815532422,0.44020307724909813,0,,,
1714160648.7080567,control,0.005203294028009981,0.44020307724909813,0,,,
1714160648.72409,control,0.005136153561758657,0.44020307724909813,0,,,
1714160648.7401097,control,0.005136153561758657,0.44020307724909813,0,,,
1714160648.75692,control,0.005136153561758657,0.44020307724909813,0,,,
1714160648.7839859,control,0.005136153561758657,0.44020307724909813,0,,,
1714160648.788981,control,0.005136153561758657,0.44020307724909813,0,,,
1714160648.8040283,control,0.005136153561758657,0.44020307724909813,0,,,
1714160648.8200614,control,0.005136153561758657,0.44020307724909813,0,,,
1714160648.8363755,control,0.005136153561758657,0.44020307724909813,0,,,
1714160648.863915,control,0.005136153561758657,0.44020307724909813,0,,,
1714160648.8789465,control,0.005136153561758657,0.44020307724909813,0,,,
1714160648.8949885,control,0.005136153561758657,0.44020307724909813,0,,,
1714160648.911018,control,0.005136153561758657,0.44020307724909813,0,,,
1714160648.9380596,control,0.005136153561758657,0.44020307724909813,0,,,
1714160648.9425838,control,0.005136153561758657,0.44020307724909813,0,,,
1714160648.9581008,control,0.005136153561758657,0.44020307724909813,0,,,
1714160648.9851673,control,0.005136153561758657,0.44020307724909813,0,,,
1714160648.9906747,control,0.005136153561758657,0.44020307724909813,0,,,
1714160649.0175052,control,0.005136153561758657,0.44020307724909813,0,,,
1714160649.0220208,control,0.005136153561758657,0.44020307724909813,0,,,
1714160649.0385315,control,0.005136153561758657,0.44020307724909813,0,,,
1714160649.0656629,control,0.005136153561758657,0.44020307724909813,0,,,
1714160649.0702546,control,0.005136153561758657,0.44020307724909813,0,,,
1714160649.086629,control,0.005136153561758657,0.44020307724909813,0,,,
1714160649.1151714,control,0.005136153561758657,0.44020307724909813,0,,,
1714160649.1286874,control,0.005136153561758657,0.44020307724909813,0,,,
1714160649.1447122,control,0.005136153561758657,0.44020307724909813,0,,,
1714160649.160737,control,0.005136153561758657,0.44020307724909813,0,,,
1714160649.187297,control,0.005136153561758657,0.44020307724909813,0,,,
1714160649.1968129,control,0.005136153561758657,0.44020307724909813,0,,,
1714160649.2243557,control,0.005136153561758657,0.44020307724909813,0,,,
1714160649.2378826,control,0.005136153561758657,0.44020307724909813,0,,,
1714160649.2539072,control,0.005136153561758657,0.44020307724909813,0,,,
1714160649.2699447,control,0.005136153561758657,0.44020307724909813,0,,,
1714160649.2964916,control,0.005136153561758657,0.44020307724909813,0,,,
1714160649.3115408,control,0.005136153561758657,0.44020307724909813,0,,,
1714160649.326054,control,0.005136153561758657,0.44020307724909813,0,,,
1714160649.342083,control,0.005136153561758657,0.44020307724909813,0,,,
1714160649.3699412,control,0.005136153561758657,0.44020307724909813,0,,,
1714160649.3749485,control,0.005136153561758657,0.44020307724909813,0,,,
1714160649.4015155,control,0.005136153561758657,0.44020307724909813,0,,,
1714160649.4160275,control,0.005136153561758657,0.44020307724909813,0,,,
1714160649.431065,control,0.005136153561758657,0.44020307724909813,0,,,
1714160649.4479308,control,0.005136153561758657,0.44020307724909813,0,,,
1714160649.4637985,control,0.005136153561758657,0.44020307724909813,0,,,
1714160649.4801695,control,0.005136153561758657,0.44020307724909813,0,,,
1714160649.4957254,control,0.005136153561758657,0.44020307724909813,0,,,
1714160649.5117414,control,0.005136153561758657,0.44020307724909813,0,,,
1714160649.538778,control,0.005136153561758657,0.44020307724909813,0,,,
1714160649.552426,control,0.005136153561758657,0.44020307724909813,0,,,
1714160649.5680163,control,0.005136153561758657,0.44020307724909813,0,,,
1714160649.583046,control,0.005136153561758657,0.44020307724909813,0,,,
1714160649.6105814,control,0.005136153561758657,0.44020307724909813,0,,,
1714160649.6156096,control,0.005136153561758657,0.44020307724909813,0,,,
1714160649.631603,control,0.005136153561758657,0.44020307724909813,0,,,
