timestamp,event_type,steering,throttle,brake,instruction,user_response,button_pressed
1714158824.8853457,control,0.0,0.6212635577612914,0.6212635577612914,,,
1714158824.889347,control,0.0,0.6212635577612914,0.6212635577612914,,,
1714158824.9175668,control,0.0,0.6212635577612914,0.6212635577612914,,,
1714158824.9230714,control,0.0,0.6212635577612914,0.6212635577612914,,,
1714158824.9378169,control,0.0,0.6212635577612914,0.6212635577612914,,,
1714158824.9554787,control,0.0,0.6212635577612914,0.6212635577612914,,,
1714158824.9830315,control,0.0,0.6212635577612914,0.6212635577612914,,,
1714158824.987548,control,0.0,0.6212635577612914,0.6212635577612914,,,
1714158825.003572,control,0.0,0.6212635577612914,0.6212635577612914,,,
1714158825.0230882,control,0.0,0.6212635577612914,0.6212635577612914,,,
1714158825.0501802,control,0.0,0.6212635577612914,0.6212635577612914,,,
1714158825.0567086,control,0.0,0.6212635577612914,0.6212635577612914,,,
1714158825.0841563,control,0.0,0.6212635577612914,0.6212635577612914,,,
1714158825.0931563,control,0.0,0.6212635577612914,0.6212635577612914,,,
1714158825.1081815,control,0.0,0.6212635577612914,0.6212635577612914,,,
1714158825.1237512,control,0.0,0.6212635577612914,0.6212635577612914,,,
1714158825.1397943,control,0.0,0.6212635577612914,0.6212635577612914,,,
1714158825.1553283,control,0.0,0.6212635577612914,0.6212635577612914,,,
1714158825.1718454,control,0.0,0.6212635577612914,0.6212635577612914,,,
1714158825.1878836,control,0.0,0.6212635577612914,0.6212635577612914,,,
1714158825.2056687,control,0.0,0.6212635577612914,0.6212635577612914,,,
1714158825.2317207,control,0.0,0.6212635577612914,0.6212635577612914,,,
1714158825.23776,control,0.0,0.6212635577612914,0.6212635577612914,,,
1714158825.2541084,control,0.0,0.6212635577612914,0.6212635577612914,,,
1714158825.2706203,control,0.0,0.6212635577612914,0.6212635577612914,,,
1714158825.285646,control,0.0,0.6212635577612914,0.6212635577612914,,,
1714158825.3009045,control,0.0,0.6212635577612914,0.6212635577612914,,,
1714158825.3194344,control,0.0,0.6212635577612914,0.6212635577612914,,,
1714158825.3347437,control,0.0,0.6212635577612914,0.6212635577612914,,,
1714158825.3506734,control,0.0,0.6212635577612914,0.6212635577612914,,,
1714158825.3663208,control,0.0,0.6212635577612914,0.6212635577612914,,,
1714158825.3851063,control,0.0,0.6212635577612914,0.6212635577612914,,,
1714158825.4001403,control,0.0,0.6212635577612914,0.6212635577612914,,,
1714158825.4167144,control,0.0,0.6212635577612914,0.6212635577612914,,,
1714158825.4322305,control,0.0,0.6212635577612914,0.6212635577612914,,,
1714158825.4603004,control,0.0,0.6212635577612914,0.6212635577612914,,,
1714158825.4658134,control,0.0,0.6212635577612914,0.6212635577612914,,,
1714158825.4813578,control,0.0,0.6212635577612914,0.6212635577612914,,,
1714158825.496915,control,0.0,0.6212635577612914,0.6212635577612914,,,
1714158825.5129743,control,0.0,0.6212635577612914,0.6212635577612914,,,
1714158825.529424,control,0.0,0.6212635577612914,0.6212635577612914,,,
1714158825.5452006,control,0.0,0.6212635577612914,0.6212635577612914,,,
1714158825.561716,control,0.0,0.6212635577612914,0.6212635577612914,,,
1714158825.576756,control,0.0,0.6212635577612914,0.6212635577612914,,,
1714158825.593768,control,0.0,0.6212635577612914,0.6212635577612914,,,
1714158825.6132834,control,0.0,0.6212635577612914,0.6212635577612914,,,
1714158825.6278908,control,0.0,0.6212635577612914,0.6212635577612914,,,
1714158825.64399,control,0.0,0.6212635577612914,0.6212635577612914,,,
1714158825.6716638,control,0.0,0.6212635577612914,0.6212635577612914,,,
1714158825.6771789,control,0.0,0.6212635577612914,0.6212635577612914,,,
1714158825.6913846,control,0.0,0.6212635577612914,0.6212635577612914,,,
1714158825.709403,control,0.0,0.6212635577612914,0.6212635577612914,,,
1714158825.7240205,control,0.0,0.6212635577612914,0.6212635577612914,,,
1714158825.7398806,control,0.0,0.6212635577612914,0.6212635577612914,,,
1714158825.7559104,control,0.0,0.6212635577612914,0.6212635577612914,,,
1714158825.7720313,control,0.0,0.6212635577612914,0.6212635577612914,,,
1714158825.7879155,control,0.0,0.6212635577612914,0.6212635577612914,,,
1714158825.805162,control,0.0,0.6212635577612914,0.6212635577612914,,,
1714158825.8321114,control,0.0,0.6212635577612914,0.6212635577612914,,,
1714158825.8371477,control,0.0,0.6212635577612914,0.6212635577612914,,,
1714158825.8636816,control,0.010003995822411705,0,0,,,
1714158825.8696947,control,0.010003995822411705,0,0,,,
1714158825.8843873,control,0.010003995822411705,0,0,,,
1714158825.8998985,control,0.010003995822411705,0,0,,,
1714158825.9159236,control,0.010003995822411705,0.0028277482171481516,0,,,
1714158825.9319804,control,0.010003995822411705,0.0028277482171481516,0,,,
1714158825.94842,control,0.010003995822411705,0.017267888969123124,0,,,
1714158825.9646866,control,0.010003995822411705,0.024407952688081158,0,,,
1714158825.9803638,control,0.010003995822411705,0.052479355626510404,0,,,
1714158825.9959881,control,0.010003995822411705,0.07973353318972798,0,,,
1714158826.0129797,control,0.010003995822411705,0.10624112294099608,0,,,
1714158826.0280545,control,0.010003995822411705,0.12565593800669816,0,,,
1714158826.0451176,control,0.010003995822411705,0.15095092562560875,0,,,
1714158826.0718434,control,0.010003995822411705,0.19370895502001195,0,,,
1714158826.0773616,control,0.010003995822411705,0.199662632348784,0,,,
1714158826.1042745,control,0.010003995822411705,0.22889367883523715,0,,,
1714158826.1217873,control,0.010003995822411705,0.24601766394382407,0,,,
1714158826.1377268,control,0.010003995822411705,0.2628438985038368,0,,,
1714158826.1650007,control,0.010003995822411705,0.3063544237406597,0,,,
1714158826.1700137,control,0.010003995822411705,0.32217185588316455,0,,,
1714158826.1857638,control,0.010003995822411705,0.34797293749399727,0,,,
1714158826.212952,control,0.010003995822411705,0.40724416412853137,0,,,
1714158826.2179565,control,0.010003995822411705,0.4262150514850285,0,,,
1714158826.233043,control,0.010003995822411705,0.4585447094584232,0,,,
1714158826.2492754,control,0.010003995822411705,0.489829122983541,0,,,
1714158826.2763348,control,0.010003995822411705,0.5201501606714016,0,,,
1714158826.2823346,control,0.010003995822411705,0.5244028813951171,0,,,
1714158826.30088,control,0.010003995822411705,0.5244028813951171,0,,,
1714158826.3158998,control,0.010003995822411705,0.5201501606714016,0,,,
1714158826.3319147,control,0.010003995822411705,0.5158786685404688,0,,,
1714158826.3479724,control,0.010003995822411705,0.5115882385542678,0,,,
1714158826.3643064,control,0.010003995822411705,0.5072787020410159,0,,,
1714158826.3804445,control,0.010003995822411705,0.49423373242330904,0,,,
1714158826.3980687,control,0.010003995822411705,0.4675867878551181,0,,,
1714158826.4241197,control,0.010003995822411705,0.4120218652667349,0,,,
1714158826.4301226,control,0.010003995822411705,0.3878751353819707,0,,,
1714158826.4565473,control,0.010003995822411705,0.2628438985038368,0,,,
1714158826.4618115,control,0.010003995822411705,0.23463540773444125,0,,,
1714158826.476842,control,0.010003995822411705,0.1446888937210118,0,,,
1714158826.4933186,control,0.010003995822411705,0.052479355626510404,0,,,
1714158826.5088692,control,0.010003995822411705,0,0,,,
1714158826.5250034,control,0.010003995822411705,0,0,,,
1714158826.5415127,control,0.010003995822411705,0,0,,,
1714158826.55719,control,0.010003995822411705,0,0,,,
1714158826.5732536,control,0.010003995822411705,0,0,,,
1714158826.5893333,control,0.010003995822411705,0,0,,,
1714158826.605267,control,0.010003995822411705,0,0,,,
1714158826.6249304,control,0.010003995822411705,0,0,,,
1714158826.6405337,control,0.010003995822411705,0,0,,,
1714158826.6561756,control,0.010003995822411705,0,0,,,
1714158826.6716437,control,0.010003995822411705,0,0,,,
1714158826.6889818,control,0.010003995822411705,0,0,,,
1714158826.7159173,control,0.010003995822411705,0,0,,,
1714158826.721913,control,0.010003995822411705,0,0,,,
1714158826.748023,control,0.010003995822411705,0,0,,,
1714158826.7530234,control,0.010003995822411705,0,0,,,
1714158826.770654,control,0.010003995822411705,0,0,,,
1714158826.786674,control,0.010003995822411705,0,0,,,
1714158826.8021839,control,0.010003995822411705,0,0,,,
1714158826.818021,control,0.010003995822411705,0,0,,,
1714158826.835588,control,0.010003995822411705,0,0,,,
1714158826.8501024,control,0.010003995822411705,0,0,,,
1714158826.8661323,control,0.010003995822411705,0,0,,,
1714158826.8815122,control,0.010003995822411705,0,0,,,
1714158826.8985412,control,0.010003995822411705,0,0,,,
1714158826.9145606,control,0.010003995822411705,0,0,,,
1714158826.9301178,control,0.010003995822411705,0,0,,,
1714158826.9583032,control,0.010003995822411705,0,0,,,
1714158826.9648101,control,0.010003995822411705,0,0,,,
1714158826.9823275,control,0.010003995822411705,0,0,,,
1714158826.9983542,control,0.010003995822411705,0.052479355626510404,0,,,
1714158827.016019,control,0.010003995822411705,0.1446888937210118,0,,,
1714158827.0310898,control,0.010003995822411705,0.22889367883523715,0,,,
1714158827.0472522,control,0.010003995822411705,0.3063544237406597,0,,,
1714158827.063651,control,0.010003995822411705,0.3731039454650429,0,,,
1714158827.0790675,control,0.010003995822411705,0.4262150514850285,0,,,
1714158827.1082408,control,0.010003995822411705,0.49423373242330904,0,,,
1714158827.1132393,control,0.010003995822411705,0.5115882385542678,0,,,
1714158827.1422644,control,0.010003995822411705,0.5820735872329712,0,,,
1714158827.147274,control,0.010003995822411705,0.5939935593690986,0,,,
1714158827.166343,control,0.010003995822411705,0.6250363555220111,0,,,
1714158827.181598,control,0.010003995822411705,0.6583455427660694,0,,,
1714158827.1983168,control,0.010003995822411705,0.6905462680468858,0,,,
1714158827.2255402,control,0.010003995822411705,0.7385990455456733,0,,,
1714158827.2305398,control,0.010003995822411705,0.7452730126871808,0,,,
1714158827.2463048,control,0.010003995822411705,0.7747490395939178,0,,,
1714158827.2614179,control,0.010003995822411705,0.797069797803618,0,,,
1714158827.2783825,control,0.010003995822411705,0.815800474153604,0,,,
1714158827.2949722,control,0.010003995822411705,0.831137108933895,0,,,
1714158827.3114922,control,0.010003995822411705,0.8372043476161997,0,,,
1714158827.3272016,control,0.010003995822411705,0.8432337839429888,0,,,
1714158827.3436646,control,0.010003995822411705,0.8432337839429888,0,,,
1714158827.3592033,control,0.010003995822411705,0.8462344728585406,0,,,
1714158827.3751063,control,0.010003995822411705,0.8462344728585406,0,,,
1714158827.3914673,control,0.010003995822411705,0.8462344728585406,0,,,
1714158827.4075255,control,0.010003995822411705,0.8462344728585406,0,,,
1714158827.4230576,control,0.010003995822411705,0.8492258860594036,0,,,
1714158827.4396746,control,0.010003995822411705,0.8492258860594036,0,,,
1714158827.4572852,control,0.010003995822411705,0.8492258860594036,0,,,
1714158827.471926,control,0.010003995822411705,0.8492258860594036,0,,,
1714158827.488259,control,0.010003995822411705,0.8522080807149879,0,,,
1714158827.504299,control,0.010003995822411705,0.855181113467795,0,,,
1714158827.521391,control,0.010003995822411705,0.8610999172391722,0,,,
1714158827.547055,control,0.010003995822411705,0.8640457989658082,0,,,
1714158827.552054,control,0.010003995822411705,0.8640457989658082,0,,,
1714158827.5802462,control,0.010003995822411705,0.8699107950992607,0,,,
1714158827.5847576,control,0.010003995822411705,0.8728300172221422,0,,,
1714158827.6117997,control,0.010003995822411705,0.8844196335872573,0,,,
1714158827.620326,control,0.010003995822411705,0.8872954793884136,0,,,
1714158827.635381,control,0.010003995822411705,0.8930216582254509,0,,,
1714158827.6508918,control,0.010003995822411705,0.9043733590638868,0,,,
1714158827.6668015,control,0.010003995822411705,0.9155934430134648,0,,,
1714158827.6832964,control,0.010003995822411705,0.9211550755624077,0,,,
1714158827.6993675,control,0.010003995822411705,0.9294380482405054,0,,,
1714158827.7150295,control,0.010003995822411705,0.9321833590175354,0,,,
1714158827.73205,control,0.010003995822411705,0.9349209036999581,0,,,
1714158827.7470644,control,0.010003995822411705,0.9403728696690115,0,,,
1714158827.764909,control,0.010003995822411705,0.9430873774794483,0,,,
1714158827.7881553,control,0.010003995822411705,0.9430873774794483,0,,,
1714158827.803189,control,0.010003995822411705,0.9430873774794483,0,,,
1714158827.830233,control,0.010003995822411705,0.9430873774794483,0,,,
1714158827.847054,control,0.010003995822411705,0.9430873774794483,0,,,
1714158827.8630981,control,0.010003995822411705,0.9430873774794483,0,,,
1714158827.8796191,control,0.010003995822411705,0.9430873774794483,0,,,
1714158827.8946466,control,0.010003995822411705,0.9376507261022167,0,,,
1714158827.9133039,control,0.010003995822411705,0.9376507261022167,0,,,
1714158827.9404778,control,0.010003995822411705,0.9349209036999581,0,,,
1714158827.9450045,control,0.010003995822411705,0.9349209036999581,0,,,
1714158827.9729164,control,0.010003995822411705,0.9349209036999581,0,,,
1714158827.9779289,control,0.010003995822411705,0.9349209036999581,0,,,
1714158827.9929998,control,0.010003995822411705,0.9349209036999581,0,,,
1714158828.0095246,control,0.010003995822411705,0.9349209036999581,0,,,
1714158828.025185,control,0.010003995822411705,0.9349209036999581,0,,,
1714158828.0407887,control,0.010003995822411705,0.9349209036999581,0,,,
1714158828.0578194,control,0.010003995822411705,0.9349209036999581,0,,,
1714158828.0849886,control,0.010003995822411705,0.9349209036999581,0,,,
1714158828.0899892,control,0.010003995822411705,0.9349209036999581,0,,,
1714158828.1177025,control,0.010003995822411705,0.9376507261022167,0,,,
1714158828.1241746,control,0.010003995822411705,0.9376507261022167,0,,,
1714158828.1502273,control,0.010003995822411705,0.9403728696690115,0,,,
1714158828.1559052,control,0.010003995822411705,0.9403728696690115,0,,,
1714158828.1719213,control,0.010003995822411705,0.9403728696690115,0,,,
1714158828.1871068,control,0.010003995822411705,0.9403728696690115,0,,,
1714158828.215236,control,0.010003995822411705,0.9430873774794483,0,,,
1714158828.2202368,control,0.010003995822411705,0.9430873774794483,0,,,
1714158828.2358177,control,0.010003995822411705,0.9430873774794483,0,,,
1714158828.252331,control,0.010003995822411705,0.9430873774794483,0,,,
1714158828.2683551,control,0.010003995822411705,0.9430873774794483,0,,,
1714158828.2842586,control,0.010003995822411705,0.9430873774794483,0,,,
1714158828.2999852,control,0.010003995822411705,0.9430873774794483,0,,,
1714158828.3162892,control,-0.0054718563681688355,0.9430873774794483,0,,,
1714158828.3330991,control,-0.009366118590497706,0.9430873774794483,0,,,
1714158828.361145,control,-0.01500661950192187,0.9430873774794483,0,,,
1714158828.365659,control,-0.016181832113375805,0.9430873774794483,0,,,
1714158828.3818579,control,-0.01886820540346316,0.9430873774794483,0,,,
1714158828.3968854,control,-0.020815994062162252,0.9430873774794483,0,,,
1714158828.4132974,control,-0.022159387687737283,0.9430873774794483,0,,,
1714158828.4293869,control,-0.022763940612044196,0.9430873774794483,0,,,
1714158828.4454029,control,-0.02279752736918923,0.9457942922511292,0,,,
1714158828.460972,control,-0.022763940612044196,0.9511855117652559,0,,,
1714158828.4784853,control,-0.022763940612044196,0.9565468628740066,0,,,
1714158828.4929943,control,-0.022763940612044196,0.9618786747083273,0,,,
1714158828.510079,control,-0.022763940612044196,0.9645336047683365,0,,,
1714158828.5375867,control,-0.022763940612044196,0.9698217130085646,0,,,
1714158828.5430942,control,-0.022763940612044196,0.9698217130085646,0,,,
1714158828.5696237,control,-0.022495248396466428,0.9750810813882282,0,,,
1714158828.5751493,control,-0.022461662098579815,0.9777000854222132,0,,,
1714158828.6016681,control,-0.021487681184684845,0.9803120206108048,0,,,
1714158828.6071799,control,-0.021319757610816347,0.9803120206108048,0,,,
1714158828.6231995,control,-0.0205473245038763,0.9829169250097677,0,,,
1714158828.639765,control,-0.019674168715942564,0.985514836368376,0,,,
1714158828.6557987,control,-0.01900253089231023,0.985514836368376,0,,,
1714158828.6714027,control,-0.01816300764114875,0.9881057921326963,0,,,
1714158828.6874406,control,-0.017424248390092125,0.9906898294488262,0,,,
1714158828.702957,control,-0.016853402032893795,0.9906898294488262,0,,,
1714158828.7195497,control,-0.01651761521125624,0.9906898294488262,0,,,
1714158828.7357254,control,-0.016450458296203296,0.9906898294488262,0,,,
1714158828.751268,control,-0.016450458296203296,0.9932669851660886,0,,,
1714158828.7668526,control,-0.0163833015294947,0.9958372958401867,0,,,
1714158828.7868922,control,-0.0163833015294947,0.9984007977363134,0,,,
1714158828.8014185,control,-0.0163833015294947,0.9984007977363134,0,,,
1714158828.8292072,control,-0.0163833015294947,1,0,,,
1714158828.8442886,control,-0.0163833015294947,1,0,,,
1714158828.8588195,control,-0.0163833015294947,1,0,,,
1714158828.8753963,control,-0.0163833015294947,1,0,,,
1714158828.9021368,control,-0.01631614491052453,1,0,,,
1714158828.9076521,control,-0.01631614491052453,1,0,,,
1714158828.9233248,control,-0.015980364010543185,1,0,,,
1714158828.9390109,control,-0.01547669939173311,1,0,,,
1714158828.9550407,control,-0.014771582056475233,1,0,,,
1714158828.9713745,control,-0.013764296877851828,1,0,,,
1714158828.9984722,control,-0.011313348846069202,1,0,,,
1714158829.0054436,control,-0.010675454344272741,1,0,,,
1714158829.0209537,control,-0.008862536711238747,1,0,,,
1714158829.0368757,control,-0.0070161063318982565,1,0,,,
1714158829.0533934,control,-0.005102583346035085,1,0,,,
1714158829.0689793,control,-0.003155528051635838,1,0,,,
1714158829.0850215,control,-0.001376343642515778,1,0,,,
1714158829.1011658,control,0.00016784668126372065,1,0,,,
1714158829.118922,control,0.001644898944465358,1,0,,,
1714158829.1452394,control,0.0029876797879627216,1,0,,,
1714158829.151239,control,0.003189097725403821,1,0,,,
1714158829.179305,control,0.0034912251218399463,1,0,,,
1714158829.1848156,control,0.0034912251218399463,1,0,,,
1714158829.2119353,control,0.0034912251218399463,1,0,,,
1714158829.217777,control,0.0034912251218399463,1,0,,,
1714158829.2444062,control,0.0034912251218399463,1,0,,,
1714158829.249554,control,0.0034912251218399463,1,0,,,
1714158829.265142,control,0.0034912251218399463,1,0,,,
1714158829.2810016,control,0.0034912251218399463,1,0,,,
1714158829.2980242,control,0.0034912251218399463,1,0,,,
1714158829.3131137,control,0.0034912251218399463,1,0,,,
1714158829.3289301,control,0.0034912251218399463,1,0,,,
1714158829.3450139,control,0.0034912251218399463,1,0,,,
1714158829.363108,control,0.0034912251218399463,1,0,,,
1714158829.3912122,control,0.0034912251218399463,1,0,,,
1714158829.4087756,control,0.0034912251218399463,1,0,,,
1714158829.4243402,control,0.0034912251218399463,1,0,,,
1714158829.4512708,control,0.0034912251218399463,1,0,,,
1714158829.4567878,control,0.0034912251218399463,1,0,,,
1714158829.4829779,control,0.0034912251218399463,1,0,,,
1714158829.4879837,control,0.0034912251218399463,1,0,,,
1714158829.5050788,control,0.0034912251218399463,1,0,,,
1714158829.520597,control,0.0034912251218399463,1,0,,,
1714158829.5367408,control,0.0034912251218399463,1,0,,,
1714158829.5522597,control,0.0034912251218399463,1,0,,,
1714158829.5684302,control,0.0034912251218399463,1,0,,,
1714158829.5959609,control,0.0034912251218399463,1,0,,,
1714158829.6009624,control,0.0034912251218399463,1,0,,,
1714158829.6277835,control,0.0034912251218399463,1,0,,,
1714158829.6317835,control,0.0034912251218399463,1,0,,,
1714158829.648372,control,0.0034912251218399463,1,0,,,
1714158829.664126,control,0.0034912251218399463,1,0,,,
1714158829.6804104,control,0.0034912251218399463,1,0,,,
1714158829.6960316,control,0.0034912251218399463,1,0,,,
1714158829.7243981,control,0.0034912251218399463,1,0,,,
1714158829.7295752,control,0.0034912251218399463,1,0,,,
1714158829.7556198,control,0.0034912251218399463,1,0,,,
1714158829.7721548,control,0.0034912251218399463,1,0,,,
1714158829.7876544,control,0.0034912251218399463,1,0,,,
1714158829.8036737,control,0.0033233764931090057,1,0,,,
1714158829.8307211,control,0.003121958384979857,1,0,,,
1714158829.835233,control,0.00302124942692731,1,0,,,
1714158829.8512516,control,0.0029876797879627216,1,0,,,
1714158829.8672826,control,0.0028198316926319757,1,0,,,
1714158829.8948276,control,0.001980593410097507,1,0,,,
1714158829.8998249,control,0.0017791766819938736,1,0,,,
1714158829.9154131,control,0.0010070804185887954,1,0,,,
1714158829.9329305,control,0.00016784668126372065,1,0,,,
1714158829.960503,control,-0.0015106212662533923,1,0,,,
1714158829.9650126,control,-0.001947023944695216,1,0,,,
1714158829.9812946,control,-0.0029876797879627216,1,0,,,
1714158829.9971333,control,-0.004129051785568245,1,0,,,
1714158830.0139987,control,-0.0051697237890583995,1,0,,,
1714158830.0411277,control,-0.006478972489779557,1,0,,,
1714158830.0451512,control,-0.0066803972258384975,1,0,,,
1714158830.061375,control,-0.0071503904128676025,1,0,,,
1714158830.0773993,control,-0.007318245877265359,1,0,,,
1714158830.0954485,control,-0.007318245877265359,1,0,,,
1714158830.1233091,control,-0.007318245877265359,1,0,,,
1714158830.1283486,control,-0.007318245877265359,1,0,,,
1714158830.1444602,control,-0.007318245877265359,1,0,,,
1714158830.1603765,control,-0.007318245877265359,1,0,,,
1714158830.1762228,control,-0.007318245877265359,1,0,,,
1714158830.191499,control,-0.007318245877265359,1,0,,,
1714158830.208193,control,-0.007318245877265359,1,0,,,
1714158830.235728,control,-0.007318245877265359,1,0,,,
1714158830.2412393,control,-0.007318245877265359,1,0,,,
1714158830.2673678,control,-0.007318245877265359,1,0,,,
1714158830.2723665,control,-0.007318245877265359,1,0,,,
1714158830.2884,control,-0.007318245877265359,1,0,,,
1714158830.304475,control,-0.007318245877265359,1,0,,,
1714158830.321987,control,-0.007318245877265359,1,0,,,
1714158830.3520026,control,-0.007318245877265359,1,0,,,
1714158830.3570664,control,-0.007318245877265359,1,0,,,
1714158830.3718138,control,-0.007318245877265359,1,0,,,
1714158830.387843,control,-0.007318245877265359,1,0,,,
1714158830.404272,control,-0.007318245877265359,1,0,,,
1714158830.42434,control,-0.007318245877265359,1,0,,,
1714158830.4399374,control,-0.007318245877265359,1,0,,,
1714158830.4561296,control,-0.007318245877265359,1,0,,,
1714158830.4716368,control,-0.007318245877265359,1,0,,,
1714158830.4893036,control,-0.007318245877265359,1,0,,,
1714158830.5160153,control,-0.007318245877265359,1,0,,,
1714158830.521015,control,-0.007318245877265359,1,0,,,
1714158830.536063,control,-0.007318245877265359,1,0,,,
1714158830.5521944,control,-0.007318245877265359,1,0,,,
1714158830.5689292,control,-0.007318245877265359,1,0,,,
1714158830.5961437,control,-0.007318245877265359,1,0,,,
1714158830.6011438,control,-0.007318245877265359,1,0,,,
1714158830.6187553,control,-0.007318245877265359,1,0,,,
1714158830.633768,control,-0.007318245877265359,1,0,,,
1714158830.6505227,control,-0.007318245877265359,1,0,,,
1714158830.6665425,control,-0.007318245877265359,1,0,,,
1714158830.6818235,control,-0.007318245877265359,1,0,,,
1714158830.6978486,control,-0.00721753254974785,1,0,,,
1714158830.714257,control,-0.0071503904128676025,1,0,,,
1714158830.7408924,control,-0.006982535351379313,1,0,,,
1714158830.7464068,control,-0.006982535351379313,1,0,,,
1714158830.7732158,control,-0.0066803972258384975,1,0,,,
1714158830.7904172,control,-0.006478972489779557,1,0,,,
1714158830.8058963,control,-0.0061768363662808344,1,0,,,
1714158830.8224087,control,-0.005841130882576674,1,0,,,
1714158830.838972,control,-0.005371145400193799,1,0,,,
1714158830.8543162,control,-0.004968302597389185,1,0,,,
1714158830.8698335,control,-0.0043304714053845495,1,0,,,
1714158830.8858688,control,-0.003692643736813869,1,0,,,
1714158830.9019034,control,-0.003054819072701254,1,0,,,
1714158830.918227,control,-0.002517705515070633,1,0,,,
1714158830.9452698,control,-0.0017120378055124094,1,0,,,
1714158830.9502716,control,-0.001678468373097412,1,0,,,
1714158830.966298,control,-0.0015106212662533923,1,0,,,
1714158830.9815633,control,-0.0014770518554011664,1,0,,,
1714158831.0005064,control,-0.0014770518554011664,1,0,,,
1714158831.0281627,control,-0.0014770518554011664,1,0,,,
1714158831.0336664,control,-0.0014770518554011664,1,0,,,
1714158831.0493057,control,-0.0014770518554011664,1,0,,,
1714158831.0653274,control,-0.0014770518554011664,1,0,,,
1714158831.0813138,control,-0.0014770518554011664,1,0,,,
1714158831.096922,control,-0.0014770518554011664,1,0,,,
1714158831.113284,control,-0.0014770518554011664,1,0,,,
1714158831.139567,control,-0.0014770518554011664,1,0,,,
1714158831.1445425,control,-0.0014770518554011664,1,0,,,
1714158831.1609037,control,-0.0014770518554011664,1,0,,,
1714158831.1773233,control,-0.0014770518554011664,1,0,,,
1714158831.1930017,control,-0.0014770518554011664,1,0,,,
1714158831.209134,control,-0.0014770518554011664,1,0,,,
1714158831.22518,control,-0.0014770518554011664,1,0,,,
1714158831.2529466,control,-0.0014770518554011664,1,0,,,
1714158831.2579572,control,-0.0014770518554011664,1,0,,,
1714158831.2729814,control,-0.0014770518554011664,1,0,,,
1714158831.289024,control,-0.0014770518554011664,1,0,,,
1714158831.305219,control,-0.0014770518554011664,1,0,,,
1714158831.3321834,control,-0.0014770518554011664,1,0,,,
1714158831.337692,control,-0.0014770518554011664,1,0,,,
1714158831.3532248,control,-0.0014770518554011664,1,0,,,
1714158831.3690405,control,-0.0014770518554011664,1,0,,,
1714158831.3851674,control,-0.0014770518554011664,1,0,,,
1714158831.412218,control,-0.0014770518554011664,1,0,,,
1714158831.4173355,control,-0.0014770518554011664,1,0,,,
1714158831.433392,control,-0.0014770518554011664,1,0,,,
1714158831.4490273,control,-0.0014770518554011664,1,0,,,
1714158831.4648147,control,-0.0014770518554011664,1,0,,,
1714158831.4808989,control,-0.0014770518554011664,1,0,,,
1714158831.496829,control,-0.0014770518554011664,1,0,,,
1714158831.5243661,control,-0.0014770518554011664,1,0,,,
1714158831.5293653,control,-0.0014770518554011664,1,0,,,
1714158831.5463638,control,-0.0012756354575484802,1,0,,,
1714158831.560878,control,-0.0009735110497271773,1,0,,,
1714158831.5768757,control,-0.0005371094266496038,1,0,,,
1714158831.5933933,control,-0.00013427734455702498,0.9984007977363134,0,,,
1714158831.6104152,control,0.0004699707377261985,0.9984007977363134,0,,,
1714158831.6370847,control,0.001644898944465358,0.9906898294488262,0,,,
1714158831.6422174,control,0.001980593410097507,0.9906898294488262,0,,,
1714158831.6572526,control,0.003121958384979857,0.985514836368376,0,,,
1714158831.673363,control,0.004364041375739933,0.9777000854222132,0,,,
1714158831.6908605,control,0.005975412913838536,0.9750810813882282,0,,,
1714158831.7064342,control,0.007821814782508936,0.9671812709887372,0,,,
1714158831.721948,control,0.009836132624928856,0.9618786747083273,0,,,
1714158831.7378268,control,0.012119123545796005,0.9511855117652559,0,,,
1714158831.7543886,control,0.014301512034630343,0.9430873774794483,0,,,
1714158831.7704632,control,0.016282566656252002,0.9294380482405054,0,,,
1714158831.7870975,control,0.0179951060999946,0.9183782547191166,0,,,
1714158831.8050058,control,0.019170438717913414,0.9071905994812317,0,,,
1714158831.821402,control,0.0198084983904942,0.8958720915083908,0,,,
1714158831.8374355,control,0.019942828779636625,0.8901628041524876,0,,,
1714158831.8529632,control,0.019942828779636625,0.8815352159528578,0,,,
1714158831.880001,control,0.019942828779636625,0.8699107950992607,0,,,
1714158831.8855145,control,0.019942828779636625,0.8640457989658082,0,,,
1714158831.9010324,control,0.019942828779636625,0.855181113467795,0,,,
1714158831.9170766,control,0.019942828779636625,0.8402237616098741,0,,,
1714158831.933862,control,0.019942828779636625,0.8219643255649756,0,,,
1714158831.960652,control,0.019942828779636625,0.7907447988173995,0,,,
1714158831.9651601,control,0.019942828779636625,0.7811791057752773,0,,,
1714158831.9823644,control,0.019942828779636625,0.7682759626167606,0,,,
1714158831.997358,control,0.019942828779636625,0.7584844315286202,0,,,
1714158832.0134254,control,0.019942828779636625,0.751901267366327,0,,,
1714158832.0303836,control,0.019942828779636625,0.7452730126871808,0,,,
1714158832.046462,control,0.019942828779636625,0.7385990455456733,0,,,
1714158832.073229,control,0.019942828779636625,0.731878731038892,0,,,
1714158832.078243,control,0.019942828779636625,0.731878731038892,0,,,
1714158832.0939465,control,0.019942828779636625,0.731878731038892,0,,,
1714158832.1104727,control,0.019942828779636625,0.7285009914843854,0,,,
1714158832.1262674,control,0.019942828779636625,0.7251114209440678,0,,,
1714158832.1533115,control,0.019942828779636625,0.7182964533433602,0,,,
1714158832.1584415,control,0.019942828779636625,0.7182964533433602,0,,,
1714158832.1754537,control,0.019942828779636625,0.7148708872888985,0,,,
1714158832.190965,control,0.019942828779636625,0.7114331522353371,0,,,
1714158832.2069917,control,0.019942828779636625,0.7079831614159194,0,,,
1714158832.2233222,control,0.019942828779636625,0.7079831614159194,0,,,
1714158832.2398474,control,0.019942828779636625,0.7079831614159194,0,,,
1714158832.266386,control,0.019842080920597478,0.7079831614159194,0,,,
1714158832.2824132,control,0.01964058640839114,0.7079831614159194,0,,,
1714158832.2984314,control,0.019338347624072258,0.7079831614159194,0,,,
1714158832.3142908,control,0.018666718444886633,0.7079831614159194,0,,,
1714158832.3419113,control,0.01631614491052453,0.7079831614159194,0,,,
1714158832.348421,control,0.015644586713137322,0.7079831614159194,0,,,
1714158832.3634388,control,0.013797872589223572,0.7079831614159194,0,,,
1714158832.3791401,control,0.01151479110305355,0.7079831614159194,0,,,
1714158832.395751,control,0.009433263194380818,0.7079831614159194,0,,,
1714158832.4112651,control,0.007318245877265359,0.7079831614159194,0,,,
1714158832.438358,control,0.004196191620808392,0.7079831614159194,0,,,
1714158832.4548862,control,0.0026519837561859573,0.7079831614159194,0,,,
1714158832.4704041,control,0.0011413579174894652,0.7079831614159194,0,,,
1714158832.487693,control,-0.00013427734455702498,0.7079831614159194,0,,,
1714158832.5043778,control,-0.001376343642515778,0.7079831614159194,0,,,
1714158832.5202014,control,-0.002517705515070633,0.7079831614159194,0,,,
1714158832.5374281,control,-0.0038940626514012643,0.7079831614159194,0,,,
1714158832.5534246,control,-0.005203294028009981,0.7079831614159194,0,,,
1714158832.568901,control,-0.006512543242173983,0.7045208271325776,0,,,
1714158832.585485,control,-0.007788243401575394,0.7045208271325776,0,,,
1714158832.6133306,control,-0.00993685047630058,0.6975587726447999,0,,,
1714158832.628479,control,-0.010944040414173094,0.6940588722660791,0,,,
1714158832.6441362,control,-0.011884104346159203,0.6870208674270563,0,,,
1714158832.6611617,control,-0.012656315356142192,0.6799313016534824,0,,,
1714158832.6876926,control,-0.013294240142122212,0.6691986068000356,0,,,
1714158832.6931977,control,-0.013327815425993978,0.6655944260979495,0,,,
1714158832.7098553,control,-0.013327815425993978,0.6583455427660694,0,,,
1714158832.7257445,control,-0.013327815425993978,0.6510419503633152,0,,,
1714158832.741306,control,-0.013327815425993978,0.6362672908600797,0,,,
1714158832.769385,control,-0.013327815425993978,0.6212635577612914,0,,,
1714158832.774897,control,-0.013327815425993978,0.6212635577612914,0,,,
1714158832.7924125,control,-0.01342854145817357,0.6174018699744762,0,,,
1714158832.81905,control,-0.013965751614150243,0.5939935593690986,0,,,
1714158832.8255708,control,-0.013999327513279185,0.5900365268213725,0,,,
1714158832.8415997,control,-0.014637275679045637,0.5820735872329712,0,,,
1714158832.8572638,control,-0.015174504404898459,0.5659327652817765,0,,,
1714158832.8732913,control,-0.015846052663512973,0.5618590664357805,0,,,
1714158832.8894117,control,-0.01651761521125624,0.5453905887593558,0,,,
1714158832.90544,control,-0.01712203422220806,0.5286369949748542,0,,,
1714158832.9323885,control,-0.017827205573103338,0.5072787020410159,0,,,
1714158832.9482613,control,-0.0179951060999946,0.48099344051233106,0,,,
1714158832.9633615,control,-0.01809584690236949,0.4585447094584232,0,,,
1714158832.9803507,control,-0.01809584690236949,0.44941734729060534,0,,,
1714158833.0070295,control,-0.01809584690236949,0.4262150514850285,0,,,
1714158833.0120294,control,-0.01809584690236949,0.4262150514850285,0,,,
1714158833.038515,control,-0.01809584690236949,0.4024427580997696,0,,,
1714158833.044534,control,-0.01809584690236949,0.39761741078017865,0,,,
1714158833.0614974,control,-0.0179951060999946,0.3878751353819707,0,,,
1714158833.0765295,control,-0.0179951060999946,0.3780527695141902,0,,,
1714158833.0920372,control,-0.01796152591377834,0.3731039454650429,0,,,
1714158833.1201453,control,-0.017289930592599083,0.36812968351497566,0,,,
1714158833.1246572,control,-0.017155613418781343,0.36812968351497566,0,,,
1714158833.1401775,control,-0.016450458296203296,0.36812968351497566,0,,,
1714158833.15656,control,-0.015644586713137322,0.3631297208009001,0,,,
1714158833.1724164,control,-0.014637275679045637,0.3581037903641062,0,,,
1714158833.1881325,control,-0.01346211686267391,0.3581037903641062,0,,,
1714158833.2044036,control,-0.012119123545796005,0.34797293749399727,0,,,
1714158833.2199683,control,-0.010809747184296021,0.34797293749399727,0,,,
1714158833.2379892,control,-0.00916468528309564,0.34797293749399727,0,,,
1714158833.2540905,control,-0.007788243401575394,0.34797293749399727,0,,,
1714158833.269857,control,-0.00627754827942594,0.34797293749399727,0,,,
1714158833.2874038,control,-0.004531891376568142,0.34797293749399727,0,,,
1714158833.3139348,control,-0.0018798850269796355,0.33257498112325345,0,,,
1714158833.3189485,control,-0.0015106212662533923,0.32738739779694637,0,,,
1714158833.334518,control,-0.00013427734455702498,0.31692805238137467,0,,,
1714158833.3505492,control,0.001309204849561668,0.3063544237406597,0,,,
1714158833.3674035,control,0.0025512750666486497,0.2902741531975883,0,,,
1714158833.3819177,control,0.0033905159216008154,0.27390101881707407,0,,,
1714158833.3984818,control,0.004028342102315501,0.2516589786340906,0,,,
1714158833.4145086,control,0.0043304714053845495,0.23463540773444125,0,,,
1714158833.4408443,control,0.0043304714053845495,0.21730699790394592,0,,,
1714158833.446355,control,0.0043304714053845495,0.21146121529928097,0,,,
1714158833.4624023,control,0.0043304714053845495,0.199662632348784,0,,,
1714158833.477973,control,0.004296901444789367,0.18771842223633461,0,,,
1714158833.4941037,control,0.004296901444789367,0.18169057485634932,0,,,
1714158833.510265,control,0.004296901444789367,0.18169057485634932,0,,,
1714158833.5266976,control,0.004296901444789367,0.16952105635545944,0,,,
1714158833.543224,control,0.004296901444789367,0.16952105635545944,0,,,
1714158833.5588555,control,0.004296901444789367,0.16952105635545944,0,,,
1714158833.5748935,control,0.004296901444789367,0.16952105635545944,0,,,
1714158833.6030295,control,0.004296901444789367,0.16952105635545944,0,,,
1714158833.6079752,control,0.004296901444789367,0.16952105635545944,0,,,
1714158833.6230123,control,0.004296901444789367,0.16952105635545944,0,,,
1714158833.638284,control,0.004296901444789367,0.16952105635545944,0,,,
1714158833.6555243,control,0.004296901444789367,0.16952105635545944,0,,,
1714158833.6830623,control,0.004296901444789367,0.16952105635545944,0,,,
1714158833.6880715,control,0.004296901444789367,0.18169057485634932,0,,,
1714158833.7031078,control,0.004296901444789367,0.18169057485634932,0,,,
1714158833.7193682,control,0.004296901444789367,0.18169057485634932,0,,,
1714158833.7351406,control,0.004296901444789367,0.18169057485634932,0,,,
1714158833.7631776,control,0.004296901444789367,0.18169057485634932,0,,,
1714158833.76919,control,0.004296901444789367,0.18169057485634932,0,,,
1714158833.784208,control,0.004296901444789367,0.18169057485634932,0,,,
1714158833.8121989,control,0.004296901444789367,0.18771842223633461,0,,,
1714158833.8177106,control,0.004296901444789367,0.18771842223633461,0,,,
1714158833.8347392,control,0.004296901444789367,0.18771842223633461,0,,,
1714158833.850312,control,0.004196191620808392,0.18771842223633461,0,,,
1714158833.866339,control,0.004129051785568245,0.18771842223633461,0,,,
1714158833.8834345,control,0.0038269229789062425,0.18771842223633461,0,,,
1714158833.9110143,control,0.003121958384979857,0.18771842223633461,0,,,
1714158833.9162607,control,0.0029876797879627216,0.18771842223633461,0,,,
1714158833.943306,control,0.001644898944465358,0.19370895502001195,0,,,
1714158833.963436,control,0.00036926271209609826,0.19370895502001195,0,,,
1714158833.991094,control,-0.0017120378055124094,0.19370895502001195,0,,,
1714158833.996258,control,-0.002316288322117708,0.19370895502001195,0,,,
1714158834.0107799,control,-0.003692643736813869,0.19370895502001195,0,,,
1714158834.0274034,control,-0.005102583346035085,0.19370895502001195,0,,,
1714158834.0434573,control,-0.006378260319911145,0.19370895502001195,0,,,
1714158834.0702786,control,-0.008191101152999683,0.19370895502001195,0,,,
1714158834.0866227,control,-0.009131113137936667,0.19370895502001195,0,,,
1714158834.102134,control,-0.009701842466471593,0.19370895502001195,0,,,
1714158834.118323,control,-0.010138286785830692,0.19370895502001195,0,,,
1714158834.1453166,control,-0.010608308068942402,0.19370895502001195,0,,,
1714158834.1503236,control,-0.010641881194613876,0.19370895502001195,0,,,
1714158834.1775086,control,-0.010675454344272741,0.19370895502001195,0,,,
1714158834.1816058,control,-0.010675454344272741,0.19370895502001195,0,,,
1714158834.1982343,control,-0.010675454344272741,0.19370895502001195,0,,,
1714158834.2141764,control,-0.010675454344272741,0.19370895502001195,0,,,
1714158834.2303488,control,-0.010675454344272741,0.19370895502001195,0,,,
1714158834.257205,control,-0.010675454344272741,0.19370895502001195,0,,,
1714158834.2643373,control,-0.010675454344272741,0.19370895502001195,0,,,
1714158834.2808442,control,-0.010675454344272741,0.19370895502001195,0,,,
1714158834.2964275,control,-0.010675454344272741,0.19370895502001195,0,,,
1714158834.311944,control,-0.010675454344272741,0.19370895502001195,0,,,
1714158834.3279698,control,-0.010675454344272741,0.19370895502001195,0,,,
1714158834.344161,control,-0.010675454344272741,0.19370895502001195,0,,,
1714158834.3716798,control,-0.010675454344272741,0.19370895502001195,0,,,
1714158834.3761878,control,-0.010675454344272741,0.19370895502001195,0,,,
1714158834.3923328,control,-0.010675454344272741,0.199662632348784,0,,,
1714158834.407851,control,-0.010507588835095427,0.199662632348784,0,,,
1714158834.423867,control,-0.010306151004842685,0.199662632348784,0,,,
1714158834.4514132,control,-0.00980256005224752,0.199662632348784,0,,,
1714158834.4565034,control,-0.009634697518754171,0.199662632348784,0,,,
1714158834.4720116,control,-0.00916468528309564,0.199662632348784,0,,,
1714158834.5001147,control,-0.008325387654478352,0.199662632348784,0,,,
1714158834.5041702,control,-0.008191101152999683,0.199662632348784,0,,,
1714158834.5206833,control,-0.00751967297970187,0.199662632348784,0,,,
1714158834.5363011,control,-0.0066803972258384975,0.199662632348784,0,,,
1714158834.5514739,control,-0.005807560407863365,0.19370895502001195,0,,,
1714158834.5678096,control,-0.004464751346123943,0.19370895502001195,0,,,
1714158834.5844698,control,-0.0025512750666486497,0.18771842223633461,0,,,
1714158834.611069,control,0.0021484408055803617,0.18771842223633461,0,,,
1714158834.6162565,control,0.0028869709111684796,0.18771842223633461,0,,,
1714158834.6338768,control,0.0071503904128676025,0.18771842223633461,0,,,
1714158834.649433,control,0.011447643581044279,0.18169057485634932,0,,,
1714158834.6651387,control,0.016114675933985436,0.18169057485634932,0,,,
1714158834.6813061,control,0.02034582428310716,0.18169057485634932,0,,,
1714158834.6974301,control,0.024006685453118373,0.18169057485634932,0,,,
1714158834.7134464,control,0.026626773384466784,0.18169057485634932,0,,,
1714158834.7396293,control,0.0281049305821968,0.18169057485634932,0,,,
1714158834.7454803,control,0.0281049305821968,0.18169057485634932,0,,,
1714158834.7614083,control,0.02750021544345724,0.18169057485634932,0,,,
1714158834.7768502,control,0.026626773384466784,0.18169057485634932,0,,,
1714158834.7930696,control,0.025451049862057578,0.18169057485634932,0,,,
1714158834.821637,control,0.023603625137388864,0.18169057485634932,0,,,
1714158834.827261,control,0.023301334937756928,0.18169057485634932,0,,,
1714158834.855627,control,0.02212580189293572,0.18169057485634932,0,,,
1714158834.859629,control,0.021957873665785155,0.18169057485634932,0,,,
1714158834.8861818,control,0.02128617304056281,0.18771842223633461,0,,,
1714158834.9007585,control,0.021118250907727114,0.19370895502001195,0,,,
1714158834.916318,control,0.02098391405902931,0.19370895502001195,0,,,
1714158834.9318318,control,0.020883161919572256,0.19370895502001195,0,,,
1714158834.9593527,control,0.020815994062162252,0.199662632348784,0,,,
1714158834.964395,control,0.020815994062162252,0.199662632348784,0,,,
1714158834.9799182,control,0.020815994062162252,0.199662632348784,0,,,
1714158834.996495,control,0.020815994062162252,0.199662632348784,0,,,
1714158835.0120058,control,0.020815994062162252,0.199662632348784,0,,,
1714158835.040084,control,0.020815994062162252,0.199662632348784,0,,,
1714158835.0441303,control,0.020815994062162252,0.199662632348784,0,,,
1714158835.0606475,control,0.020815994062162252,0.199662632348784,0,,,
1714158835.0761101,control,0.020815994062162252,0.20557990494151435,0,,,
1714158835.0916169,control,0.020815994062162252,0.20557990494151435,0,,,
1714158835.1194046,control,0.020815994062162252,0.20557990494151435,0,,,
1714158835.123922,control,0.020815994062162252,0.20557990494151435,0,,,
1714158835.1404524,control,0.020815994062162252,0.20557990494151435,0,,,
1714158835.155478,control,0.020815994062162252,0.20557990494151435,0,,,
1714158835.1718273,control,0.020815994062162252,0.20557990494151435,0,,,
1714158835.1886923,control,0.020815994062162252,0.20557990494151435,0,,,
1714158835.2046907,control,0.020815994062162252,0.20557990494151435,0,,,
1714158835.2202032,control,0.020815994062162252,0.199662632348784,0,,,
1714158835.2482803,control,0.020815994062162252,0.19370895502001195,0,,,
1714158835.2522783,control,0.020815994062162252,0.19370895502001195,0,,,
1714158835.2680223,control,0.020815994062162252,0.18771842223633461,0,,,
1714158835.2838182,control,0.020815994062162252,0.18771842223633461,0,,,
1714158835.3003435,control,0.020815994062162252,0.18169057485634932,0,,,
1714158835.327879,control,0.020815994062162252,0.18169057485634932,0,,,
1714158835.3456328,control,0.020815994062162252,0.18169057485634932,0,,,
1714158835.3611462,control,0.020815994062162252,0.16952105635545944,0,,,
1714158835.37725,control,0.020815994062162252,0.16952105635545944,0,,,
1714158835.3931556,control,0.020815994062162252,0.16952105635545944,0,,,
1714158835.4093666,control,0.020815994062162252,0.16952105635545944,0,,,
1714158835.425097,control,0.020815994062162252,0.16335472196081402,0,,,
1714158835.4516344,control,0.020815994062162252,0.1446888937210118,0,,,
1714158835.4571426,control,0.020815994062162252,0.13838607675206616,0,,,
1714158835.4730456,control,0.020815994062162252,0.132041939961842,0,,,
1714158835.5005898,control,0.020681658909961084,0.11275610259628221,0,,,
1714158835.5050988,control,0.020681658909961084,0.09968198510957893,0,,,
1714158835.5322676,control,0.020513741018367383,0.06620238700686021,0,,,
1714158835.5374076,control,0.020513741018367383,0.059365196501131035,0,,,
1714158835.5530229,control,0.020513741018367383,0.038558918418420296,0,,,
1714158835.5808568,control,0.020513741018367383,0.0028277482171481516,0,,,
1714158835.585372,control,0.020513741018367383,0,0,,,
1714158835.6010194,control,0.020513741018367383,0,0,,,
1714158835.628073,control,0.020513741018367383,0,0,,,
1714158835.643373,control,0.020513741018367383,0,0,,,
1714158835.6584435,control,0.020513741018367383,0,0,,,
1714158835.6741428,control,0.020513741018367383,0,0,,,
1714158835.7011726,control,0.020513741018367383,0,0,,,
1714158835.716198,control,0.020513741018367383,0,0,,,
1714158835.7317245,control,0.020513741018367383,0,0,,,
1714158835.7488446,control,0.020513741018367383,0,0,,,
1714158835.7759545,control,0.020513741018367383,0,0,,,
1714158835.7799537,control,0.020513741018367383,0,0,,,
1714158835.7965705,control,0.020513741018367383,0,0,,,
1714158835.8120854,control,0.020513741018367383,0,0,,,
1714158835.8311121,control,0.020513741018367383,0,0,,,
1714158835.8462381,control,0.020513741018367383,0,0,,,
1714158835.8745525,control,0.020513741018367383,0,0,,,
1714158835.8795576,control,0.020513741018367383,0,0,,,
1714158835.8957093,control,0.020513741018367383,0,0,,,
1714158835.9112287,control,0.020513741018367383,0,0,,,
1714158835.9387817,control,0.020513741018367383,0,0,,,
1714158835.94331,control,0.020513741018367383,0,0,,,
1714158835.970988,control,0.020513741018367383,0,0,,,
1714158835.9871814,control,0.020513741018367383,0,0,,,
1714158836.0033362,control,0.020513741018367383,0,0,,,
1714158836.0213861,control,0.020513741018367383,0,0,,,
1714158836.048535,control,0.020513741018367383,0,0,,,
1714158836.0530457,control,0.020513741018367383,0,0,,,
1714158836.0695662,control,0.020513741018367383,0,0,,,
1714158836.0974267,control,0.020513741018367383,0,0,,,
1714158836.1014352,control,0.020513741018367383,0,0,,,
1714158836.11681,control,0.020513741018367383,0,0,,,
1714158836.1333148,control,0.020513741018367383,0,0,,,
1714158836.1488435,control,0.020513741018367383,0,0,,,
1714158836.1763756,control,0.0206144916139573,0,0,,,
1714158836.1813757,control,0.0206144916139573,0,0,,,
1714158836.1975977,control,0.0206144916139573,0,0,,,
1714158836.2131095,control,0.0206144916139573,0,0,,,
1714158836.228936,control,0.0206144916139573,0,0,,,
1714158836.2570624,control,0.0206144916139573,0,0,,,
1714158836.2612667,control,0.0206144916139573,0,0,,,
1714158836.2771978,control,0.0206144916139573,0,0,,,
1714158836.3042529,control,0.0206144916139573,0.0028277482171481516,0,,,
1714158836.3231518,control,0.0206144916139573,0.017267888969123124,0,,,
1714158836.351068,control,0.0206144916139573,0.06620238700686021,0,,,
1714158836.3560839,control,0.0206144916139573,0.07973353318972798,0,,,
1714158836.4011257,control,0.0206144916139573,0.15095092562560875,0,,,
1714158836.4052289,control,0.0206144916139573,0.1571726969083409,0,,,
1714158836.4311266,control,0.0206144916139573,0.22311767941076277,0,,,
1714158836.4366395,control,0.0206144916139573,0.22889367883523715,0,,,
1714158836.4521453,control,0.0206144916139573,0.2628438985038368,0,,,
1714158836.4681659,control,0.0206144916139573,0.2902741531975883,0,,,
1714158836.484186,control,0.0206144916139573,0.31165567933855187,0,,,
1714158836.5117445,control,0.0206144916139573,0.32738739779694637,0,,,
1714158836.5161736,control,0.0206144916139573,0.32738739779694637,0,,,
1714158836.5316172,control,0.0206144916139573,0.33257498112325345,0,,,
1714158836.5594509,control,0.020883161919572256,0.3377349040157591,0,,,
1714158836.5645454,control,0.02098391405902931,0.34286745988410106,0,,,
1714158836.58006,control,0.021151835238755967,0.34797293749399727,0,,,
1714158836.6074176,control,0.021487681184684845,0.36812968351497566,0,,,
1714158836.6124172,control,0.02165560596983612,0.36812968351497566,0,,,
1714158836.6395752,control,0.02202504480757715,0.3927491831883587,0,,,
1714158836.6455762,control,0.022159387687737283,0.3927491831883587,0,,,
1714158836.6601257,control,0.02242807585134285,0.40724416412853137,0,,,
1714158836.6873186,control,0.022965461927547514,0.43556283148517627,0,,,
1714158836.6923196,control,0.022999048994276516,0.44020307724909813,0,,,
1714158836.708697,control,0.023301334937756928,0.44941734729060534,0,,,
1714158836.7243803,control,0.02350286126119376,0.4720763407922195,0,,,
1714158836.7404933,control,0.023670801320863407,0.49423373242330904,0,,,
1714158836.7570596,control,0.02380515432896903,0.5115882385542678,0,,,
1714158836.7719295,control,0.023973096797525507,0.5286369949748542,0,,,
1714158836.7879496,control,0.024006685453118373,0.5495340567186471,0,,,
1714158836.8039637,control,0.024141040617622823,0.5577681465172044,0,,,
1714158836.8204813,control,0.02427539665318011,0.5740290754661139,0,,,
1714158836.8379982,control,0.024342574999120282,0.5820735872329712,0,,,
1714158836.853073,control,0.024476932350357188,0.5900365268213725,0,,,
1714158836.8692877,control,0.02467847003470468,0.5939935593690986,0,,,
1714158836.8961227,control,0.025014370635712057,0.6057684911947556,0,,,
1714158836.9123113,control,0.025148732451422667,0.6135395950806545,0,,,
1714158836.9397855,control,0.02561900598449338,0.6212635577612914,0,,,
1714158836.9434059,control,0.025686188837382905,0.6212635577612914,0,,,
1714158836.9593418,control,0.0259213306512658,0.6212635577612914,0,,,
1714158836.9753623,control,0.026190067662009594,0.6287945016040417,0,,,
1714158836.9908779,control,0.026458808453085014,0.6362672908600797,0,,,
1714158837.0068974,control,0.026660366550601604,0.6399821568419266,0,,,
1714158837.0231354,control,0.026929114050728606,0.6473693789729349,0,,,
1714158837.039319,control,0.027130677224647796,0.6510419503633152,0,,,
1714158837.0548627,control,0.0272986482183356,0.6547006367625572,0,,,
1714158837.071378,control,0.02750021544345724,0.6547006367625572,0,,,
1714158837.0982418,control,0.027869761167519366,0.6619767717918214,0,,,
1714158837.1037502,control,0.028004143311352453,0.6655944260979495,0,,,
1714158837.1202948,control,0.028272910635808248,0.6691986068000356,0,,,
1714158837.135007,control,0.02864247237908706,0.6727894138880657,0,,,
1714158837.1515543,control,0.029012041939859828,0.6763669462430741,0,,,
1714158837.1672525,control,0.029482414664730533,0.6834825768311373,0,,,
1714158837.1832693,control,0.029986399911774427,0.6940588722660791,0,,,
1714158837.199323,control,0.03062480310645879,0.6975587726447999,0,,,
1714158837.2149,control,0.031162425119801714,0.7079831614159194,0,,,
1714158837.2308931,control,0.03163285913428636,0.7114331522353371,0,,,
1714158837.259444,control,0.03200249566226525,0.7182964533433602,0,,,
1714158837.2634442,control,0.032103307136410575,0.7182964533433602,0,,,
1714158837.2791824,control,0.032103307136410575,0.7217099362473083,0,,,
1714158837.3067293,control,0.032103307136410575,0.7251114209440678,0,,,
1714158837.3108363,control,0.032103307136410575,0.7251114209440678,0,,,
1714158837.3384318,control,0.032103307136410575,0.7285009914843854,0,,,
1714158837.3574672,control,0.032103307136410575,0.7285009914843854,0,,,
1714158837.3732715,control,0.032103307136410575,0.7285009914843854,0,,,
1714158837.4014149,control,0.03213691110588244,0.7385990455456733,0,,,
1714158837.4160073,control,0.03230493204233613,0.7419417825477788,0,,,
1714158837.431515,control,0.032506559572116726,0.7485928149134281,0,,,
1714158837.4477108,control,0.032842611330446705,0.7584844315286202,0,,,
1714158837.4637234,control,0.033346702885540085,0.7650231145123714,0,,,
1714158837.4794333,control,0.033951635120624664,0.7747490395939178,0,,,
1714158837.4954548,control,0.034623811178960254,0.7779694132809515,0,,,
1714158837.5217307,control,0.03553129854295621,0.7875667289663495,0,,,
1714158837.5272417,control,0.03566574605051447,0.7907447988173995,0,,,
1714158837.5435967,control,0.0361027093689617,0.797069797803618,0,,,
1714158837.5591154,control,0.03630438938063072,0.8002168620402252,0,,,
1714158837.5752292,control,0.03647245830941864,0.803353725078269,0,,,
1714158837.6017718,control,0.03660691493359059,0.8095971106044709,0,,,
1714158837.6072822,control,0.03660691493359059,0.8095971106044709,0,,,
1714158837.623325,control,0.03660691493359059,0.815800474153604,0,,,
1714158837.6508982,control,0.03660691493359059,0.8250315908900264,0,,,
1714158837.6548574,control,0.03660691493359059,0.8280891649972684,0,,,
1714158837.671376,control,0.03660691493359059,0.8341754831720845,0,,,
1714158837.6985655,control,0.03660691493359059,0.8402237616098741,0,,,
1714158837.7030702,control,0.03660691493359059,0.8402237616098741,0,,,
1714158837.7310956,control,0.03664052929598154,0.8462344728585406,0,,,
1714158837.7516809,control,0.036774987573219155,0.8492258860594036,0,,,
1714158837.7672489,control,0.036842217209507186,0.8492258860594036,0,,,
1714158837.7833123,control,0.03694306228773731,0.855181113467795,0,,,
1714158837.7992358,control,0.03711113908665382,0.8581450404398726,0,,,
1714158837.8267896,control,0.03751453196530301,0.8640457989658082,0,,,
1714158837.8307898,control,0.03768261592230588,0.8640457989658082,0,,,
1714158837.8493366,control,0.03815326234388489,0.8669827402182236,0,,,
1714158837.8642154,control,0.038623925644010244,0.8669827402182236,0,,,
1714158837.8807347,control,0.039296331480175584,0.8699107950992607,0,,,
1714158837.8957922,control,0.03996877279749584,0.8699107950992607,0,,,
1714158837.9123,control,0.040674875033720616,0.8728300172221422,0,,,
1714158837.9398427,control,0.042154459482662276,0.8786421752334822,0,,,
1714158837.9554124,control,0.04296158279537992,0.8844196335872573,0,,,
1714158837.96993,control,0.04346606317308158,0.8844196335872573,0,,,
1714158837.9864821,control,0.04376876198332176,0.8901628041524876,0,,,
1714158838.001996,control,0.043970565634294786,0.8901628041524876,0,,,
1714158838.0301921,control,0.04437418367629961,0.8930216582254509,0,,,
1714158838.0346067,control,0.04447509043632231,0.8930216582254509,0,,,
1714158838.0618613,control,0.04565240330101536,0.8930216582254509,0,,,
1714158838.066372,control,0.04598880146100352,0.8930216582254509,0,,,
1714158838.081878,control,0.047435432863971026,0.8930216582254509,0,,,
1714158838.1104782,control,0.05016102568443149,0.8930216582254509,0,,,
1714158838.1155267,control,0.05083412446782112,0.8930216582254509,0,,,
1714158838.141587,control,0.054031981587418204,0.8930216582254509,0,,,
1714158838.1471949,control,0.05480636286918414,0.8958720915083908,0,,,
1714158838.1632128,control,0.056826798799326166,0.8958720915083908,0,,,
1714158838.1904202,control,0.06036368468581586,0.8958720915083908,0,,,
1714158838.1952753,control,0.06120601893120206,0.8958720915083908,0,,,
1714158838.2232957,control,0.06501446688863015,0.8958720915083908,0,,,
1714158838.2283635,control,0.06552015192901478,0.8958720915083908,0,,,
1714158838.243373,control,0.06754322837115989,0.8958720915083908,0,,,
1714158838.2720215,control,0.07152356703186073,0.8958720915083908,0,,,
1714158838.2770593,control,0.07206344484651621,0.8958720915083908,0,,,
1714158838.292192,control,0.07442590588468037,0.8958720915083908,0,,,
1714158838.3192804,control,0.07827512335716665,0.8958720915083908,0,,,
1714158838.3365946,control,0.08030194654950669,0.8958720915083908,0,,,
1714158838.3662548,control,0.08364764639126628,0.8901628041524876,0,,,
1714158838.3803003,control,0.08506759195854897,0.8901628041524876,0,,,
1714158838.3963559,control,0.08658934038049639,0.8901628041524876,0,,,
1714158838.412134,control,0.08797616873143703,0.8872954793884136,0,,,
1714158838.4283075,control,0.0889911336823163,0.8872954793884136,0,,,
1714158838.4443285,control,0.08980323653943122,0.8872954793884136,0,,,
1714158838.471473,control,0.09152934666493687,0.8901628041524876,0,,,
1714158838.4866123,control,0.09278196069654623,0.8901628041524876,0,,,
1714158838.5021267,control,0.0941703298771678,0.8901628041524876,0,,,
1714158838.5184562,control,0.09535580765602573,0.8901628041524876,0,,,
1714158838.5455284,control,0.0973886752122103,0.8901628041524876,0,,,
1714158838.5505328,control,0.09769367373067199,0.8901628041524876,0,,,
1714158838.5777924,control,0.09955794690572299,0.8901628041524876,0,,,
1714158838.5817916,control,0.09976136339532168,0.8901628041524876,0,,,
1714158838.6095557,control,0.10074465864435518,0.8901628041524876,0,,,
1714158838.6252632,control,0.10145682033691615,0.8901628041524876,0,,,
1714158838.6412938,control,0.10223692387390072,0.8901628041524876,0,,,
1714158838.6572938,control,0.10305107628702659,0.8901628041524876,0,,,
1714158838.684374,control,0.10430649319491264,0.8901628041524876,0,,,
1714158838.6994135,control,0.10505311127692969,0.8901628041524876,0,,,
1714158838.7140532,control,0.10559617896970581,0.8901628041524876,0,,,
1714158838.7299473,control,0.10610536087587433,0.8901628041524876,0,,,
1714158838.7575843,control,0.10647879550739155,0.8901628041524876,0,,,
1714158838.7630882,control,0.10661459719439938,0.8901628041524876,0,,,
1714158838.779503,control,0.10678435477168748,0.8901628041524876,0,,,
1714158838.8059912,control,0.10678435477168748,0.8901628041524876,0,,,
1714158838.8109934,control,0.10678435477168748,0.8901628041524876,0,,,
1714158838.8277028,control,0.10678435477168748,0.8901628041524876,0,,,
1714158838.8434887,control,0.10692016521451299,0.8901628041524876,0,,,
1714158838.8608322,control,0.1069541184343504,0.8901628041524876,0,,,
1714158838.87587,control,0.10708993375259875,0.8901628041524876,0,,,
1714158838.9034288,control,0.10763323413663303,0.8901628041524876,0,,,
1714158838.9084358,control,0.1077690690357385,0.8901628041524876,0,,,
1714158838.9244528,control,0.10817659734158556,0.8901628041524876,0,,,
1714158838.9405,control,0.10861812642638864,0.8901628041524876,0,,,
1714158838.9564874,control,0.10895779265937104,0.8901628041524876,0,,,
1714158838.9719987,control,0.1091955738025694,0.8901628041524876,0,,,
1714158838.9990573,control,0.10933145421866508,0.8901628041524876,0,,,
1714158839.015462,control,0.10933145421866508,0.8901628041524876,0,,,
1714158839.031583,control,0.10933145421866508,0.8901628041524876,0,,,
1714158839.0468013,control,0.10933145421866508,0.8901628041524876,0,,,
1714158839.075337,control,0.10933145421866508,0.8901628041524876,0,,,
1714158839.089848,control,0.10936542494588262,0.8901628041524876,0,,,
1714158839.105101,control,0.10936542494588262,0.8901628041524876,0,,,
1714158839.1216142,control,0.10936542494588262,0.8901628041524876,0,,,
1714158839.1371453,control,0.10936542494588262,0.8901628041524876,0,,,
1714158839.1531274,control,0.10936542494588262,0.8901628041524876,0,,,
1714158839.1691191,control,0.10936542494588262,0.8901628041524876,0,,,
1714158839.1848528,control,0.10936542494588262,0.8901628041524876,0,,,
1714158839.2015524,control,0.10936542494588262,0.8901628041524876,0,,,
1714158839.2175775,control,0.10936542494588262,0.8901628041524876,0,,,
1714158839.2448804,control,0.10936542494588262,0.8901628041524876,0,,,
1714158839.2594047,control,0.10936542494588262,0.8901628041524876,0,,,
1714158839.274874,control,0.10936542494588262,0.8901628041524876,0,,,
1714158839.2913866,control,0.10936542494588262,0.8901628041524876,0,,,
1714158839.3185022,control,0.10936542494588262,0.8901628041524876,0,,,
1714158839.3235018,control,0.10936542494588262,0.8901628041524876,0,,,
1714158839.3510406,control,0.10936542494588262,0.8901628041524876,0,,,
1714158839.3555522,control,0.10936542494588262,0.8901628041524876,0,,,
1714158839.371058,control,0.10936542494588262,0.8901628041524876,0,,,
1714158839.3871865,control,0.10936542494588262,0.8901628041524876,0,,,
1714158839.403508,control,0.10936542494588262,0.8901628041524876,0,,,
1714158839.4303992,control,0.10936542494588262,0.8901628041524876,0,,,
1714158839.4354372,control,0.10936542494588262,0.8901628041524876,0,,,
1714158839.4509478,control,0.10936542494588262,0.8901628041524876,0,,,
1714158839.4674969,control,0.10936542494588262,0.8901628041524876,0,,,
1714158839.4835334,control,0.10936542494588262,0.8901628041524876,0,,,
1714158839.4990554,control,0.10936542494588262,0.8901628041524876,0,,,
1714158839.5151877,control,0.10936542494588262,0.8901628041524876,0,,,
1714158839.5317028,control,0.10936542494588262,0.8901628041524876,0,,,
1714158839.546769,control,0.10936542494588262,0.8901628041524876,0,,,
1714158839.5738084,control,0.10936542494588262,0.8901628041524876,0,,,
1714158839.578822,control,0.10936542494588262,0.8901628041524876,0,,,
